[
    {
        "address":"东方路1号(亮马桥地铁站B东北口步行460米)",
        "city":"北京市",
        "longitude":116.462277,
        "rating":4.4000000000000004,
        "image":[
            "http://store.is.autonavi.com/showpic/8a4390e9b8aef7a5b26327afc2310fef",
            "http://store.is.autonavi.com/showpic/4a4ce77eed5b5d269263485bfa020a5d",
            "http://store.is.autonavi.com/showpic/aeadb09fc08d8dc18ac82eb856132566"
        ],
        "latitude":39.953178000000001,
        "type":"住宿服务;宾馆酒店;五星级宾馆",
        "tel":"010-58655000",
        "name":"北京希尔顿酒店"
    },
    {
        "address":"辅高路高米店南里18号楼",
        "city":"北京市",
        "longitude":116.339331,
        "rating":4.7000000000000002,
        "image":[
            "http://store.is.autonavi.com/showpic/d8b5baa14ea41e0edc105f9a152ad1f7",
            "http://store.is.autonavi.com/showpic/df1ba68567dae67e529cfafe1d7f5836",
            "http://store.is.autonavi.com/showpic/0e5989bb4d7a527abee712a450b52266"
        ],
        "latitude":39.768506000000002,
        "type":"住宿服务;宾馆酒店;宾馆酒店",
        "tel":"010-85075000",
        "name":"北京大兴希尔顿酒店"
    },
    {
        "address":"新华东街289号2号楼",
        "city":"北京市",
        "longitude":116.65976499999999,
        "rating":4.5999999999999996,
        "image":[
            "http://store.is.autonavi.com/showpic/bac0890e4fb16e5198c8816a6837d4a5",
            "http://store.is.autonavi.com/showpic/cb6393a52c2762450f6cb321c2fe9291",
            "http://store.is.autonavi.com/showpic/792efa2d304666eeb123ac5a146b2988"
        ],
        "latitude":39.908847999999999,
        "type":"住宿服务;宾馆酒店;五星级宾馆",
        "tel":"010-50976666",
        "name":"北京通州北投希尔顿酒店"
    },
    {
        "address":"虹桥镇红松东路1116号",
        "city":"上海市",
        "longitude":121.39447,
        "rating":4.7000000000000002,
        "image":[
            "http://store.is.autonavi.com/showpic/1864c99d51ab4f86d846f2227351b0fe",
            "http://store.is.autonavi.com/showpic/c3aa11a65b18b98ddc34785e764e76c5",
            "http://store.is.autonavi.com/showpic/a7e31a26f2a953ffa12c4454b473126f"
        ],
        "latitude":31.187863,
        "type":"住宿服务;住宿服务相关;住宿服务相关",
        "tel":"021-33236571;021-33236666",
        "name":"上海虹桥祥源希尔顿酒店"
    },
    {
        "address":"广轩路1099号",
        "city":"上海市",
        "longitude":121.19798400000001,
        "rating":4.7000000000000002,
        "image":[
            "http://store.is.autonavi.com/showpic/d289dc6b01086f5c40b8531bbf49cb4c",
            "http://store.is.autonavi.com/showpic/e612e7582e7ec1903ee1f54e65c5f600",
            "http://store.is.autonavi.com/showpic/8761fb430907632c3e04c7664c7a80a9"
        ],
        "latitude":31.064820000000001,
        "type":"住宿服务;宾馆酒店;宾馆酒店",
        "tel":"021-67898888",
        "name":"上海松江广富林希尔顿酒店"
    },
    {
        "address":"中山三路139号",
        "city":"重庆市",
        "longitude":106.549435,
        "rating":4.5999999999999996,
        "image":[
            "http://store.is.autonavi.com/showpic/076258648500567d04f3963c3be69201",
            "http://store.is.autonavi.com/showpic/0b8006b5df7e1d03febac88f928e7330",
            "http://store.is.autonavi.com/showpic/404df77a3e3f383cbc737562b5e4a29a"
        ],
        "latitude":29.555095999999999,
        "type":"住宿服务;宾馆酒店;宾馆酒店",
        "tel":"023-89039999;023-89038888",
        "name":"重庆希尔顿酒店"
    },
    {
        "address":"财富东路8号1幢",
        "city":"重庆市",
        "longitude":106.51749100000001,
        "rating":4.7999999999999998,
        "image":[
            "http://store.is.autonavi.com/showpic/912737c3e207cab535f52232ec06f2e9",
            "http://store.is.autonavi.com/showpic/276074b39546f3c4fe0fa2a83b4b38c7",
            "http://store.is.autonavi.com/showpic/263509c9a8013be1ac78a8efa0699eae"
        ],
        "latitude":29.610527000000001,
        "type":"住宿服务;宾馆酒店;五星级宾馆",
        "tel":"023-65158888",
        "name":"重庆两江新区高科希尔顿酒店"
    },
    {
        "address":"纬七路与纬四路交叉口东420米",
        "city":"儋州市",
        "longitude":109.180466,
        "rating":4.7000000000000002,
        "image":[
            "http://store.is.autonavi.com/showpic/8c82ddf7034bc8863979929c30d2c70f"
        ],
        "latitude":19.658768999999999,
        "type":"住宿服务;宾馆酒店;宾馆酒345店",
        "tel":"0898-32658888",
        "name":"海南海花岛希尔顿酒店"
    },
    {
        "address":"港浦路1号",
        "city":"大连市",
        "longitude":121.670377,
        "rating":4.5,
        "image":[
            "http://store.is.autonavi.com/showpic/5663411562142bf48e233b7a279283d8",
            "http://store.is.autonavi.com/showpic/df63c2b2b5a92f041b12ce1f69191ed1",
            "http://store.is.autonavi.com/showpic/791812f863b7fd1e8ee39afa1c52f747"
        ],
        "latitude":38.928265000000003,
        "type":"住宿服务;宾馆酒店;五星级宾馆|餐饮服务;餐饮相关场所;餐饮相关",
        "tel":"0411-86770000;0411-86771234",
        "name":"大连富力希尔顿酒店"
    },
    {
        "address":"岭南大道北127号",
        "city":"佛山市",
        "longitude":113.12388,
        "rating":4.5999999999999996,
        "image":[
            "http://store.is.autonavi.com/showpic/a69723e7f84985b377c034c71236caaa",
            "http://store.is.autonavi.com/showpic/3d567512800c8eb04ae56a73376abe8f",
            "http://store.is.autonavi.com/showpic/348f3324eb019c14517e905b94d308a4"
        ],
        "latitude":22.986726999999998,
        "type":"住宿服务;宾馆酒店;五星级宾馆",
        "tel":"0757-83069999",
        "name":"希尔顿酒店"
    },
    {
        "address":"容桂街道桂洲大道67号",
        "city":"佛山市",
        "longitude":113.27561,
        "rating":4.5999999999999996,
        "image":[
            "http://store.is.autonavi.com/showpic/66b9be5ec746c3044a210c9cfdf9afd4",
            "http://store.is.autonavi.com/showpic/82033854b7f87e21ce6b9e589bfe770d",
            "http://store.is.autonavi.com/showpic/0070df444365ccc39601412653403deb"
        ],
        "latitude":22.758543,
        "type":"住宿服务;宾馆酒店;宾馆酒店",
        "tel":"0757-26683333",
        "name":"佛山顺德海骏达希尔顿酒店"
    },
    {
        "address":"云城东路515-517号",
        "city":"广州市",
        "longitude":113.26843700000001,
        "rating":4.7000000000000002,
        "image":[
            "http://store.is.autonavi.com/showpic/b8e13c29859f290da84e66adc10e3b83",
            "http://store.is.autonavi.com/showpic/3ee704f60328249abb28da0a151f64cb",
            "http://store.is.autonavi.com/showpic/5d32088903ba43fb39828f90767ee096"
        ],
        "latitude":23.175550000000001,
        "type":"住宿服务;宾馆酒店;宾馆酒店",
        "tel":"020-66678076;020-66600666;020-66678085",
        "name":"广州万富希尔顿酒店"
    },
    {
        "address":"林和西横路215号",
        "city":"广州市",
        "longitude":113.320733,
        "rating":4.7999999999999998,
        "image":[
            "http://store.is.autonavi.com/showpic/9765b59d54e3728cc74f531f2ffa3d17",
            "http://store.is.autonavi.com/showpic/6e59367c1936a412b9144a85bab74c8e",
            "http://store.is.autonavi.com/showpic/6ebc191502abd0aeb83c1c6b0d5910f2"
        ],
        "latitude":23.146182,
        "type":"住宿服务;宾馆酒店;五星级宾馆",
        "tel":"020-66839999",
        "name":"广州天河希尔顿酒店"
    },
    {
        "address":"科学城中心区凝彩路28号",
        "city":"广州市",
        "longitude":113.451128,
        "rating":4.7999999999999998,
        "image":[
            "http://store.is.autonavi.com/showpic/ea5a80f606ef649b47e025c6c3fe1fc9",
            "http://store.is.autonavi.com/showpic/59e26e7db7a2ee35e7414a503a192909",
            "http://store.is.autonavi.com/showpic/d483183ce4b1f4ada489f6cad80f5cfe"
        ],
        "latitude":23.172236999999999,
        "type":"住宿服务;宾馆酒店;宾馆酒店",
        "tel":"020-88800999",
        "name":"广州翡翠希尔顿酒店"
    },
    {
        "address":"嘉禾路199号(莲花路口地铁站1A口步行230米)",
        "city":"厦门市",
        "longitude":118.12069700000001,
        "rating":4.5999999999999996,
        "image":[
            "http://store.is.autonavi.com/showpic/0c6efaec2ab82076239b954bf5cc9e20",
            "http://store.is.autonavi.com/showpic/067b67a0163bc2d60969dbaa1b86895e",
            "http://store.is.autonavi.com/showpic/8320899e97f2ada66dc846dc4f1147dd"
        ],
        "latitude":24.481705000000002,
        "type":"住宿服务;宾馆酒店;五星级宾馆|餐饮服务;餐饮相关场所;餐饮相关",
        "tel":"0592-5399999",
        "name":"厦门磐基希尔顿酒店"
    },
    {
        "address":"东新街199号",
        "city":"西安市",
        "longitude":108.966497,
        "rating":4.7999999999999998,
        "image":[
            "http://store.is.autonavi.com/showpic/38c378e210ebf8e7c4fa754a5614a3e1",
            "http://store.is.autonavi.com/showpic/4ee11b037ea4e3a72650816c4cfdf937",
            "http://store.is.autonavi.com/showpic/eebe76649f2929bb4ba6e45609872f63"
        ],
        "latitude":34.264904999999999,
        "type":"住宿服务;宾馆酒店;五星级宾馆",
        "tel":"029-87388888",
        "name":"西安富力希尔顿酒店"
    },
    {
        "address":"沣惠南路22号",
        "city":"西安市",
        "longitude":108.88731799999999,
        "rating":4.7000000000000002,
        "image":[
            "http://store.is.autonavi.com/showpic/5324478e00972fbadc62caea0d4bd01d",
            "http://store.is.autonavi.com/showpic/c42c7d60c312f3827f0231dcd481fcdd",
            "http://store.is.autonavi.com/showpic/4bbe482721b1d0e8914858a777eedd7a"
        ],
        "latitude":34.220923999999997,
        "type":"住宿服务;宾馆酒店;五星级宾馆",
        "tel":"029-68588888;029-68589718",
        "name":"西安高新希尔顿酒店"
    },
    {
        "address":"青年大街374号世茂铂晶宫1层",
        "city":"沈阳市",
        "longitude":123.43477799999999,
        "rating":4.7999999999999998,
        "image":[
            "http://store.is.autonavi.com/showpic/67d97d273144a46431454ce6dfa619d5",
            "http://store.is.autonavi.com/showpic/cb842f1d768437dbc2f9b99432a43cfe",
            "http://store.is.autonavi.com/showpic/11d9d3ccfcfad700f78cd6c6faa27d9f"
        ],
        "latitude":41.758465000000001,
        "type":"住宿服务;宾馆酒店;宾馆酒店",
        "tel":"024-22718888",
        "name":"沈阳世茂希尔顿酒店"
    },
    {
        "address":"嘉陵江东路1号",
        "city":"青岛市",
        "longitude":120.236857,
        "rating":4.7000000000000002,
        "image":[
            "http://store.is.autonavi.com/showpic/85a4fd535c47b78f8c9a9f910a850d59",
            "http://store.is.autonavi.com/showpic/4fc5ff500ea14231793de58c40cbb3ef",
            "http://store.is.autonavi.com/showpic/eb3f40d45bb6806fb8191f9653e4879f"
        ],
        "latitude":35.957047000000003,
        "type":"住宿服务;宾馆酒店;五星级宾馆",
        "tel":"0532-83150000",
        "name":"青岛金沙滩希尔顿酒店"
    },
    {
        "address":"东大街5号",
        "city":"石家庄市",
        "longitude":114.524916,
        "rating":4.5999999999999996,
        "image":[
            "http://store.is.autonavi.com/showpic/f0f6b0b33ddadc614cd7c0aba0686d98",
            "http://store.is.autonavi.com/showpic/ca4f12a92c2e25c62730a03bbdd1fd32",
            "http://store.is.autonavi.com/showpic/06754cef5f3fcbbf48c4293ffa98c7e0"
        ],
        "latitude":38.040042999999997,
        "type":"住宿服务;宾馆酒店;五星级宾馆",
        "tel":"0311-67966666",
        "name":"石家庄希尔顿酒店"
    },
    {
        "address":"秀洲区聚贤路688号",
        "city":"嘉兴市",
        "longitude":120.79425500000001,
        "rating":4.7000000000000002,
        "image":[
            "http://store.is.autonavi.com/showpic/eae9c2faf7def3feb7639caf07e0cdfe",
            "http://store.is.autonavi.com/showpic/368f60ef884b63067931f0f4ee3d5c4a",
            "http://store.is.autonavi.com/showpic/6a978fd9609ee2881cacad28f6de09fe"
        ],
        "latitude":30.738071999999999,
        "type":"住宿服务;宾馆酒店;宾馆酒店",
        "tel":"0573-82288228",
        "name":"嘉兴希尔顿酒店"
    },
    {
        "address":"金水路288号(燕庄地铁站B2口步行350米)",
        "city":"郑州市",
        "longitude":113.707279,
        "rating":4.7000000000000002,
        "image":[
            "http://store.is.autonavi.com/showpic/5eeb50c72dfa011263bb43e09e6c8bd7",
            "http://store.is.autonavi.com/showpic/db20f5d3599c729e0f0d53f3d7022f4e",
            "http://store.is.autonavi.com/showpic/05f8d48871028190448848f364ae5a54"
        ],
        "latitude":34.763497000000001,
        "type":"住宿服务;宾馆酒店;五星级宾馆",
        "tel":"0371-89960888",
        "name":"郑州希尔顿酒店"
    },
    {
        "address":"展丰路80号(国展北地铁站C2口步行240米)",
        "city":"深圳市",
        "longitude":113.777863,
        "rating":4.7000000000000002,
        "image":[
            "http://store.is.autonavi.com/showpic/202475305d8bc84dec3462d4867a1e2c",
            "http://store.is.autonavi.com/showpic/0bbb2cc412d3d1648fb726101c8c35d3",
            "http://store.is.autonavi.com/showpic/7b9e7d4e382f72da0a14a09f8318a56c"
        ],
        "latitude":22.705438000000001,
        "type":"住宿服务;宾馆酒店;宾馆酒店",
        "tel":"0755-29758888",
        "name":"深圳国际会展中心希尔顿酒店"
    },
    {
        "address":"滨江大道190号",
        "city":"武汉市",
        "longitude":114.27391,
        "rating":4.7999999999999998,
        "image":[
            "http://store.is.autonavi.com/showpic/58bde07c9449f21894172a4fb0a3e3f3",
            "http://store.is.autonavi.com/showpic/05ab2c32592f689d0ec54cb97cc3314f",
            "http://store.is.autonavi.com/showpic/3f56046d73329b63be6eaa7bc326f24f"
        ],
        "latitude":30.538993999999999,
        "type":"住宿服务;宾馆酒店;五星级宾馆",
        "tel":"027-59558888",
        "name":"武汉世茂希尔顿酒店"
    },
    {
        "address":"春和路9号花山生态新城",
        "city":"武汉市",
        "longitude":114.49099099999999,
        "rating":4.7000000000000002,
        "image":[
            "http://store.is.autonavi.com/showpic/69b3e53c79a824eebef3733c2e5c5c25",
            "http://store.is.autonavi.com/showpic/abe309f2bf852335dc8b5976d493d924",
            "http://store.is.autonavi.com/showpic/5996980b4d4aab684cfced377dd66d5b"
        ],
        "latitude":30.550899999999999,
        "type":"住宿服务;宾馆酒店;五星级宾馆|餐饮服务;餐饮相关场所;餐饮相关",
        "tel":"027-59338888",
        "name":"武汉光谷希尔顿酒店"
    },
    {
        "address":"动漫中路82号",
        "city":"天津市",
        "longitude":117.744378,
        "rating":4.5999999999999996,
        "image":[
            "http://store.is.autonavi.com/showpic/154b4e94295738c5db7931809e0994e8",
            "http://store.is.autonavi.com/showpic/516ad8a8a29d6232f3e98581fa6071ac",
            "http://store.is.autonavi.com/showpic/44b9e36e48ee300528bf9a1058dbb7c6"
        ],
        "latitude":39.126655,
        "type":"住宿服务;宾馆酒店;五星级宾馆",
        "tel":"022-59998888",
        "name":"天津生态城世茂希尔顿酒店"
    },
    {
        "address":"闻学路88号",
        "city":"台州市",
        "longitude":121.408365,
        "rating":4.7000000000000002,
        "image":[
            "http://store.is.autonavi.com/showpic/d736a97025d02402a4bc943847bdc17e",
            "http://store.is.autonavi.com/showpic/9d3cc9d4e2eadb09c0864b65712b1eb0",
            "http://store.is.autonavi.com/showpic/2853a751fccf7f121f24114612bea54f"
        ],
        "latitude":28.657505,
        "type":"住宿服务;宾馆酒店;五星级宾馆",
        "tel":"0576-88068888",
        "name":"台州希尔顿酒店"
    },
    {
        "address":"琼山大道2号",
        "city":"海口市",
        "longitude":110.41502199999999,
        "rating":4.5999999999999996,
        "image":[
            "http://store.is.autonavi.com/showpic/68bb7f6d78839391b1ed65ea451b7b30",
            "http://store.is.autonavi.com/showpic/88385d60fb1bb5f52cebe71276369eb2",
            "http://store.is.autonavi.com/showpic/eed8504f95cfacf722291e5a85540164"
        ],
        "latitude":20.060986,
        "type":"住宿服务;宾馆酒店;五星级宾馆",
        "tel":"0898-36398888",
        "name":"海口鲁能希尔顿酒店"
    },
    {
        "address":"滨海大道109-9号",
        "city":"海口市",
        "longitude":110.306178,
        "rating":4.7000000000000002,
        "image":[
            "http://store.is.autonavi.com/showpic/61c439575e051edf6f360662ab541ae3",
            "http://store.is.autonavi.com/showpic/9ecfe65b0f449fd3d1db9c7d4e630332",
            "http://store.is.autonavi.com/showpic/05eeb3151e078abb5ba1b94d48fdd3c2"
        ],
        "latitude":20.024063999999999,
        "type":"住宿服务;宾馆酒店;五星级宾馆",
        "tel":"0898-36798888",
        "name":"海口希尔顿酒店"
    },
    {
        "address":"纬七路与纬四路交叉口东420米",
        "city":"儋州市",
        "longitude":109.180466,
        "rating":4.7000000000000002,
        "latitude":19.658768999999999,
        "type":"住宿服务;宾馆酒店;宾馆酒345店",
        "image":[
            "http://store.is.autonavi.com/showpic/be704ce2d0e49a6b77b0dfa858f361c2",
            "http://store.is.autonavi.com/showpic/a7bf007edab84054e793fe274f9536d0",
            "http://store.is.autonavi.com/showpic/8c82ddf7034bc8863979929c30d2c70f"
        ],
        "tel":"0898-32658888",
        "name":"海南海花岛希尔顿酒店"
    },
    {
        "address":"热嘎村",
        "city":"林芝市",
        "longitude":94.295078000000004,
        "rating":4.7000000000000002,
        "image":[
            "http://store.is.autonavi.com/showpic/1dd424e8f54385593440821301c99712",
            "http://store.is.autonavi.com/showpic/564844ca3f5b4aef60fcd31b0c5aa5cb",
            "http://store.is.autonavi.com/showpic/0e9583a0ddc132940623ee13701481d6"
        ],
        "latitude":29.252191,
        "type":"住宿服务;宾馆酒店;五星级宾馆",
        "tel":"0894-5888666",
        "name":"林芝工布庄园希尔顿酒店"
    },
]
