[{
  "_id": {
    "$oid": "642149c390e61e9ede7b6a95"
  },
  "title": "星巴克(滨江店)",
  "point": {
    "lat": 31.240773,
    "lng": 121.50416
  },
  "address": "上海市浦东新区拾步街9号富都世界富城路休闲街F1号",
  "province": "上海市",
  "city": "上海市",
  "phoneNumber": "(021)58781332",
  "image": "https://poi-pic.cdn.bcebos.com/swd/5d262415-a8a1-3ced-8e54-89c7488e5a8b.jpg@h_104,w_132,q_100",
  "rating": 4,
  "__v": 0,
  "sort": "星巴克"
},{
  "_id": {
    "$oid": "642149c390e61e9ede7b6a96"
  },
  "title": "星巴克(文汇路店)",
  "point": {
    "lat": 31.05576,
    "lng": 121.221957
  },
  "address": "上海市松江区文汇路258号1区-1商铺",
  "province": "上海市",
  "city": "上海市",
  "phoneNumber": "(021)37700570",
  "image": "https://poi-pic.cdn.bcebos.com/swd/5d262415-a8a1-3ced-8e54-89c7488e5a8b.jpg@h_104,w_132,q_100",
  "rating": 4,
  "__v": 0,
  "sort": "星巴克"
},{
  "_id": {
    "$oid": "642149c390e61e9ede7b6a97"
  },
  "title": "星巴克(纳贤路店)",
  "point": {
    "lat": 31.183804,
    "lng": 121.612234
  },
  "address": "上海市浦东新区纳贤路800号2号楼105室",
  "province": "上海市",
  "city": "上海市",
  "phoneNumber": "(021)58582932",
  "image": "https://poi-pic.cdn.bcebos.com/swd/5d262415-a8a1-3ced-8e54-89c7488e5a8b.jpg@h_104,w_132,q_100",
  "rating": 3,
  "__v": 0,
  "sort": "星巴克"
},{
  "_id": {
    "$oid": "642149c390e61e9ede7b6a98"
  },
  "title": "星巴克(人民坊店)",
  "point": {
    "lat": 31.224198,
    "lng": 121.46874
  },
  "address": "上海市黄浦区淮海中路835号1~3F",
  "province": "上海市",
  "city": "上海市",
  "phoneNumber": "(021)54590752",
  "image": "https://poi-pic.cdn.bcebos.com/swd/5d262415-a8a1-3ced-8e54-89c7488e5a8b.jpg@h_104,w_132,q_100",
  "rating": 4,
  "__v": 0,
  "sort": "星巴克"
},{
  "_id": {
    "$oid": "642149c390e61e9ede7b6a99"
  },
  "title": "星巴克(申北路店)",
  "point": {
    "lat": 31.09768,
    "lng": 121.392564
  },
  "address": "上海市闵行区申北路8号",
  "province": "上海市",
  "city": "上海市",
  "phoneNumber": "(021)54291923",
  "image": "https://poi-pic.cdn.bcebos.com/swd/5d262415-a8a1-3ced-8e54-89c7488e5a8b.jpg@h_104,w_132,q_100",
  "rating": 4,
  "__v": 0,
  "sort": "星巴克"
},{
  "_id": {
    "$oid": "642149c390e61e9ede7b6a9a"
  },
  "title": "星巴克(新华路店)",
  "point": {
    "lat": 31.210017,
    "lng": 121.42939
  },
  "address": "上海市长宁区新华路519号1B室",
  "province": "上海市",
  "city": "上海市",
  "phoneNumber": "(021)62803927",
  "image": "https://poi-pic.cdn.bcebos.com/swd/5d262415-a8a1-3ced-8e54-89c7488e5a8b.jpg@h_104,w_132,q_100",
  "rating": 4,
  "__v": 0,
  "sort": "星巴克"
},{
  "_id": {
    "$oid": "642149c390e61e9ede7b6a9b"
  },
  "title": "星巴克(吴中路店)",
  "point": {
    "lat": 31.182071,
    "lng": 121.391544
  },
  "address": "上海市闵行区吴中路1169号-1",
  "province": "上海市",
  "city": "上海市",
  "phoneNumber": "(021)54222091",
  "image": "https://poi-pic.cdn.bcebos.com/swd/5d262415-a8a1-3ced-8e54-89c7488e5a8b.jpg@h_104,w_132,q_100",
  "rating": 3,
  "__v": 0,
  "sort": "星巴克"
},{
  "_id": {
    "$oid": "642149c390e61e9ede7b6a9c"
  },
  "title": "星巴克(均瑶店)",
  "point": {
    "lat": 31.204648,
    "lng": 121.45495
  },
  "address": "上海市徐汇区肇嘉浜路789号1F",
  "province": "上海市",
  "city": "上海市",
  "phoneNumber": "(021)64161632",
  "image": "https://poi-pic.cdn.bcebos.com/swd/5d262415-a8a1-3ced-8e54-89c7488e5a8b.jpg@h_104,w_132,q_100",
  "rating": 4,
  "__v": 0,
  "sort": "星巴克"
},{
  "_id": {
    "$oid": "642149c390e61e9ede7b6a9d"
  },
  "title": "星巴克(朵云轩店)",
  "point": {
    "lat": 31.180091,
    "lng": 121.454356
  },
  "address": "上海市徐汇区天钥桥路1188弄",
  "province": "上海市",
  "city": "上海市",
  "phoneNumber": "(021)64386376",
  "image": "https://poi-pic.cdn.bcebos.com/swd/5d262415-a8a1-3ced-8e54-89c7488e5a8b.jpg@h_104,w_132,q_100",
  "rating": 4,
  "__v": 0,
  "sort": "星巴克"
},{
  "_id": {
    "$oid": "642149c390e61e9ede7b6a9e"
  },
  "title": "星巴克(瑞金路店)",
  "point": {
    "lat": 31.221253,
    "lng": 121.471611
  },
  "address": "上海市黄浦区瑞金二路101－107号",
  "province": "上海市",
  "city": "上海市",
  "phoneNumber": "(021)53062578",
  "image": "https://poi-pic.cdn.bcebos.com/swd/5d262415-a8a1-3ced-8e54-89c7488e5a8b.jpg@h_104,w_132,q_100",
  "rating": 4,
  "__v": 0,
  "sort": "星巴克"
},{
  "_id": {
    "$oid": "642149c390e61e9ede7b6a9f"
  },
  "title": "星巴克(800秀店)",
  "point": {
    "lat": 31.240063,
    "lng": 121.449338
  },
  "address": "上海市静安区常德路800号",
  "province": "上海市",
  "city": "上海市",
  "phoneNumber": "(021)62552462",
  "image": "https://poi-pic.cdn.bcebos.com/swd/5d262415-a8a1-3ced-8e54-89c7488e5a8b.jpg@h_104,w_132,q_100",
  "rating": 4,
  "__v": 0,
  "sort": "星巴克"
},{
  "_id": {
    "$oid": "642149c390e61e9ede7b6aa0"
  },
  "title": "星巴克(恒丰路店)",
  "point": {
    "lat": 31.249082,
    "lng": 121.463047
  },
  "address": "上海市静安区恒丰路299号隆宇国际商务广场中101-07号",
  "province": "上海市",
  "city": "上海市",
  "phoneNumber": "(021)52560830",
  "image": "https://poi-pic.cdn.bcebos.com/swd/5d262415-a8a1-3ced-8e54-89c7488e5a8b.jpg@h_104,w_132,q_100",
  "rating": 4,
  "__v": 0,
  "sort": "星巴克"
},{
  "_id": {
    "$oid": "642149c390e61e9ede7b6aa1"
  },
  "title": "星巴克(E朋汇店)",
  "point": {
    "lat": 31.26622,
    "lng": 121.531878
  },
  "address": "上海市杨浦区江浦路627号24幢101室",
  "province": "上海市",
  "city": "上海市",
  "phoneNumber": "(021)55900015",
  "image": "https://poi-pic.cdn.bcebos.com/swd/5d262415-a8a1-3ced-8e54-89c7488e5a8b.jpg@h_104,w_132,q_100",
  "rating": 4,
  "__v": 0,
  "sort": "星巴克"
},{
  "_id": {
    "$oid": "642149c390e61e9ede7b6aa2"
  },
  "title": "星巴克(星游城店)",
  "point": {
    "lat": 31.191272,
    "lng": 121.448783
  },
  "address": "上海市徐汇区天钥桥路580号星游城F1",
  "province": "上海市",
  "city": "上海市",
  "phoneNumber": "(021)54660125",
  "image": "https://poi-pic.cdn.bcebos.com/swd/5d262415-a8a1-3ced-8e54-89c7488e5a8b.jpg@h_104,w_132,q_100",
  "rating": 4,
  "__v": 0,
  "sort": "星巴克"
},{
  "_id": {
    "$oid": "642149c390e61e9ede7b6aa3"
  },
  "title": "星巴克(安波路店)",
  "point": {
    "lat": 31.308489,
    "lng": 121.537345
  },
  "address": "上海市杨浦区安波路419号",
  "province": "上海市",
  "city": "上海市",
  "phoneNumber": "(021)65662378",
  "image": "https://poi-pic.cdn.bcebos.com/swd/5d262415-a8a1-3ced-8e54-89c7488e5a8b.jpg@h_104,w_132,q_100",
  "rating": 4,
  "__v": 0,
  "sort": "星巴克"
},{
  "_id": {
    "$oid": "642149c390e61e9ede7b6aa4"
  },
  "title": "星巴克(汾阳路店)",
  "point": {
    "lat": 31.216001,
    "lng": 121.459358
  },
  "address": "上海市徐汇区汾阳路138号1楼03单元",
  "province": "上海市",
  "city": "上海市",
  "phoneNumber": "(021)54650525",
  "image": "https://poi-pic.cdn.bcebos.com/swd/5d262415-a8a1-3ced-8e54-89c7488e5a8b.jpg@h_104,w_132,q_100",
  "rating": 3,
  "__v": 0,
  "sort": "星巴克"
},{
  "_id": {
    "$oid": "642149c390e61e9ede7b6aa5"
  },
  "title": "星巴克(漕河泾2店)",
  "point": {
    "lat": 31.169623,
    "lng": 121.410473
  },
  "address": "上海市徐汇区桂平路391号",
  "province": "上海市",
  "city": "上海市",
  "phoneNumber": "(021)54043672",
  "image": "https://poi-pic.cdn.bcebos.com/swd/5d262415-a8a1-3ced-8e54-89c7488e5a8b.jpg@h_104,w_132,q_100",
  "rating": 4,
  "__v": 0,
  "sort": "星巴克"
},{
  "_id": {
    "$oid": "642149c390e61e9ede7b6aa6"
  },
  "title": "星巴克(四平路店)",
  "point": {
    "lat": 31.268098,
    "lng": 121.497675
  },
  "address": "上海市虹口区四平路188号113、116室",
  "province": "上海市",
  "city": "上海市",
  "phoneNumber": "(021)56373691",
  "image": "https://poi-pic.cdn.bcebos.com/swd/5d262415-a8a1-3ced-8e54-89c7488e5a8b.jpg@h_104,w_132,q_100",
  "rating": 4,
  "__v": 0,
  "sort": "星巴克"
},{
  "_id": {
    "$oid": "642149c390e61e9ede7b6aa7"
  },
  "title": "星巴克(H88店)",
  "point": {
    "lat": 31.177462,
    "lng": 121.417015
  },
  "address": "上海市徐汇区虹漕路88号H88越虹广场B座1层",
  "province": "上海市",
  "city": "上海市",
  "phoneNumber": "(021)64150107",
  "image": "https://poi-pic.cdn.bcebos.com/swd/5d262415-a8a1-3ced-8e54-89c7488e5a8b.jpg@h_104,w_132,q_100",
  "rating": 3,
  "__v": 0,
  "sort": "星巴克"
},{
  "_id": {
    "$oid": "642149c390e61e9ede7b6aa8"
  },
  "title": "星巴克(黄浦新苑店)",
  "point": {
    "lat": 31.216287,
    "lng": 121.492829
  },
  "address": "上海市黄浦区西藏南路1130号",
  "province": "上海市",
  "city": "上海市",
  "phoneNumber": "(021)63526369",
  "image": "https://poi-pic.cdn.bcebos.com/swd/5d262415-a8a1-3ced-8e54-89c7488e5a8b.jpg@h_104,w_132,q_100",
  "rating": 4,
  "__v": 0,
  "sort": "星巴克"
},{
  "_id": {
    "$oid": "642149f090e61e9ede7b6aaa"
  },
  "title": "星巴克(十六铺店)",
  "point": {
    "lat": 31.233907,
    "lng": 121.504597
  },
  "address": "上海市黄浦区中山东二路531号B11室",
  "province": "上海市",
  "city": "上海市",
  "phoneNumber": "(021)63332820",
  "image": "https://poi-pic.cdn.bcebos.com/swd/5d262415-a8a1-3ced-8e54-89c7488e5a8b.jpg@h_104,w_132,q_100",
  "rating": 3,
  "__v": 0,
  "sort": "星巴克"
},{
  "_id": {
    "$oid": "642149f090e61e9ede7b6aab"
  },
  "title": "星巴克(紫苑店)",
  "point": {
    "lat": 31.240319,
    "lng": 121.459509
  },
  "address": "上海市静安区江宁路388号",
  "province": "上海市",
  "city": "上海市",
  "phoneNumber": "(021)52902021",
  "image": "https://poi-pic.cdn.bcebos.com/swd/5d262415-a8a1-3ced-8e54-89c7488e5a8b.jpg@h_104,w_132,q_100",
  "rating": 3,
  "__v": 0,
  "sort": "星巴克"
},{
  "_id": {
    "$oid": "642149f090e61e9ede7b6aac"
  },
  "title": "星巴克(东靖路店)",
  "point": {
    "lat": 31.297057,
    "lng": 121.594826
  },
  "address": "上海市浦东新区张杨北路1933号102室",
  "province": "上海市",
  "city": "上海市",
  "phoneNumber": "(021)58360083",
  "image": "https://poi-pic.cdn.bcebos.com/swd/5d262415-a8a1-3ced-8e54-89c7488e5a8b.jpg@h_104,w_132,q_100",
  "rating": 3,
  "__v": 0,
  "sort": "星巴克"
},{
  "_id": {
    "$oid": "642149f090e61e9ede7b6aad"
  },
  "title": "星巴克(吉浦湾店)",
  "point": {
    "lat": 31.311175,
    "lng": 121.497171
  },
  "address": "上海市杨浦区吉浦路323号1楼",
  "province": "上海市",
  "city": "上海市",
  "phoneNumber": "(021)55086196",
  "image": "https://poi-pic.cdn.bcebos.com/swd/5d262415-a8a1-3ced-8e54-89c7488e5a8b.jpg@h_104,w_132,q_100",
  "rating": 3,
  "__v": 0,
  "sort": "星巴克"
},{
  "_id": {
    "$oid": "642149f090e61e9ede7b6aae"
  },
  "title": "星巴克(上南路店)",
  "point": {
    "lat": 31.174993,
    "lng": 121.503609
  },
  "address": "上海市浦东新区上南路1567号",
  "province": "上海市",
  "city": "上海市",
  "phoneNumber": "(021)50763606",
  "image": "https://poi-pic.cdn.bcebos.com/swd/5d262415-a8a1-3ced-8e54-89c7488e5a8b.jpg@h_104,w_132,q_100",
  "rating": 3,
  "__v": 0,
  "sort": "星巴克"
},{
  "_id": {
    "$oid": "642149f090e61e9ede7b6aaf"
  },
  "title": "星巴克(北园路店)",
  "point": {
    "lat": 31.210497,
    "lng": 121.528255
  },
  "address": "上海市浦东新区北园路106号、110号",
  "province": "上海市",
  "city": "上海市",
  "phoneNumber": "(021)38751187",
  "image": "https://poi-pic.cdn.bcebos.com/swd/5d262415-a8a1-3ced-8e54-89c7488e5a8b.jpg@h_104,w_132,q_100",
  "rating": 3,
  "__v": 0,
  "sort": "星巴克"
},{
  "_id": {
    "$oid": "642149f090e61e9ede7b6ab0"
  },
  "title": "星巴克(虹梅路店)",
  "point": {
    "lat": 31.193696,
    "lng": 121.394083
  },
  "address": "上海市闵行区虹梅路3188－1号",
  "province": "上海市",
  "city": "上海市",
  "phoneNumber": "(021)54221872",
  "image": "https://poi-pic.cdn.bcebos.com/swd/5d262415-a8a1-3ced-8e54-89c7488e5a8b.jpg@h_104,w_132,q_100",
  "rating": 4,
  "__v": 0,
  "sort": "星巴克"
},{
  "_id": {
    "$oid": "642149f090e61e9ede7b6ab1"
  },
  "title": "星巴克(华虹园店)",
  "point": {
    "lat": 31.248231,
    "lng": 121.630289
  },
  "address": "上海市浦东新区锦绣东路2777弄1号101室",
  "province": "上海市",
  "city": "上海市",
  "phoneNumber": "(021)58560501",
  "image": "https://poi-pic.cdn.bcebos.com/swd/5d262415-a8a1-3ced-8e54-89c7488e5a8b.jpg@h_104,w_132,q_100",
  "rating": 3,
  "__v": 0,
  "sort": "星巴克"
},{
  "_id": {
    "$oid": "642149f090e61e9ede7b6ab2"
  },
  "title": "星巴克(Max未来店)",
  "point": {
    "lat": 31.275071,
    "lng": 121.341711
  },
  "address": "上海市嘉定区海波路616号1F-318室",
  "province": "上海市",
  "city": "上海市",
  "phoneNumber": "(021)59175606",
  "image": "https://poi-pic.cdn.bcebos.com/swd/5d262415-a8a1-3ced-8e54-89c7488e5a8b.jpg@h_104,w_132,q_100",
  "rating": 4,
  "__v": 0,
  "sort": "星巴克"
},{
  "_id": {
    "$oid": "642149f090e61e9ede7b6ab3"
  },
  "title": "星巴克(汤臣店)",
  "point": {
    "lat": 31.234857,
    "lng": 121.530887
  },
  "address": "上海市浦东新区东方路710号汤臣金融中心",
  "province": "上海市",
  "city": "上海市",
  "phoneNumber": "(021)58308150",
  "image": "https://poi-pic.cdn.bcebos.com/swd/5d262415-a8a1-3ced-8e54-89c7488e5a8b.jpg@h_104,w_132,q_100",
  "rating": 4,
  "__v": 0,
  "sort": "星巴克"
},{
  "_id": {
    "$oid": "642149f090e61e9ede7b6ab4"
  },
  "title": "星巴克(昌平路店)",
  "point": {
    "lat": 31.241517,
    "lng": 121.451947
  },
  "address": "上海市静安区西康路665号1层A室",
  "province": "上海市",
  "city": "上海市",
  "phoneNumber": "(021)52998703",
  "image": "https://poi-pic.cdn.bcebos.com/swd/5d262415-a8a1-3ced-8e54-89c7488e5a8b.jpg@h_104,w_132,q_100",
  "rating": 3,
  "__v": 0,
  "sort": "星巴克"
},{
  "_id": {
    "$oid": "642149f090e61e9ede7b6ab5"
  },
  "title": "星巴克(安亭老街店)",
  "point": {
    "lat": 31.301618,
    "lng": 121.161347
  },
  "address": "上海市嘉定区安亭街556-620(双号)第一层558单元，第二层556，558单元",
  "province": "上海市",
  "city": "上海市",
  "phoneNumber": "(021)59560030",
  "image": "https://poi-pic.cdn.bcebos.com/swd/5d262415-a8a1-3ced-8e54-89c7488e5a8b.jpg@h_104,w_132,q_100",
  "rating": 3,
  "__v": 0,
  "sort": "星巴克"
},{
  "_id": {
    "$oid": "642149f090e61e9ede7b6ab6"
  },
  "title": "星巴克(柳州路店)",
  "point": {
    "lat": 31.173175,
    "lng": 121.43198
  },
  "address": "上海市徐汇区柳州路399号甲302室",
  "province": "上海市",
  "city": "上海市",
  "phoneNumber": "(021)26018533",
  "image": "https://poi-pic.cdn.bcebos.com/swd/5d262415-a8a1-3ced-8e54-89c7488e5a8b.jpg@h_104,w_132,q_100",
  "rating": 4,
  "__v": 0,
  "sort": "星巴克"
},{
  "_id": {
    "$oid": "642149f090e61e9ede7b6ab7"
  },
  "title": "星巴克(兴梅路店)",
  "point": {
    "lat": 31.11163,
    "lng": 121.417834
  },
  "address": "上海市闵行区兴梅路1234号1_2层、兴梅路1238、1236号1_2层",
  "province": "上海市",
  "city": "上海市",
  "phoneNumber": "(021)34979701",
  "image": "https://poi-pic.cdn.bcebos.com/swd/5d262415-a8a1-3ced-8e54-89c7488e5a8b.jpg@h_104,w_132,q_100",
  "rating": 4,
  "__v": 0,
  "sort": "星巴克"
},{
  "_id": {
    "$oid": "642149f090e61e9ede7b6ab8"
  },
  "title": "星巴克(外高桥店)",
  "point": {
    "lat": 31.319596,
    "lng": 121.612242
  },
  "address": "上海市浦东新区加枫路24号",
  "province": "上海市",
  "city": "上海市",
  "phoneNumber": "(021)50482915",
  "image": "https://poi-pic.cdn.bcebos.com/swd/5d262415-a8a1-3ced-8e54-89c7488e5a8b.jpg@h_104,w_132,q_100",
  "rating": 4,
  "__v": 0,
  "sort": "星巴克"
},{
  "_id": {
    "$oid": "642149f090e61e9ede7b6ab9"
  },
  "title": "星巴克(明中广场店)",
  "point": {
    "lat": 31.079294,
    "lng": 121.327856
  },
  "address": "上海市松江区明中路1885号明中广场F1",
  "province": "上海市",
  "city": "上海市",
  "phoneNumber": "(021)37652298",
  "image": "https://poi-pic.cdn.bcebos.com/swd/5d262415-a8a1-3ced-8e54-89c7488e5a8b.jpg@h_104,w_132,q_100",
  "rating": 3,
  "__v": 0,
  "sort": "星巴克"
},{
  "_id": {
    "$oid": "642149f090e61e9ede7b6aba"
  },
  "title": "星巴克(新郁路店)",
  "point": {
    "lat": 31.250906,
    "lng": 121.365627
  },
  "address": "上海市嘉定区新郁路258号101,102,103室",
  "province": "上海市",
  "city": "上海市",
  "phoneNumber": "(021)59131003",
  "image": "https://poi-pic.cdn.bcebos.com/swd/5d262415-a8a1-3ced-8e54-89c7488e5a8b.jpg@h_104,w_132,q_100",
  "rating": 3,
  "__v": 0,
  "sort": "星巴克"
},{
  "_id": {
    "$oid": "642149f090e61e9ede7b6abb"
  },
  "title": "星巴克(定西路店)",
  "point": {
    "lat": 31.223119,
    "lng": 121.428939
  },
  "address": "上海市长宁区定西路1328号1层102室",
  "province": "上海市",
  "city": "上海市",
  "phoneNumber": "(021)52763075",
  "image": "https://poi-pic.cdn.bcebos.com/swd/5d262415-a8a1-3ced-8e54-89c7488e5a8b.jpg@h_104,w_132,q_100",
  "rating": 4,
  "__v": 0,
  "sort": "星巴克"
},{
  "_id": {
    "$oid": "642149f090e61e9ede7b6abc"
  },
  "title": "星巴克(森茂店)",
  "point": {
    "lat": 31.245748,
    "lng": 121.513767
  },
  "address": "上海市浦东新区陆家嘴环路1000号恒生银行大厦1层",
  "province": "上海市",
  "city": "上海市",
  "phoneNumber": "(021)68413880",
  "image": "https://poi-pic.cdn.bcebos.com/swd/5d262415-a8a1-3ced-8e54-89c7488e5a8b.jpg@h_104,w_132,q_100",
  "rating": 3,
  "__v": 0,
  "sort": "星巴克"
},{
  "_id": {
    "$oid": "642149f090e61e9ede7b6abd"
  },
  "title": "星巴克(中港汇店)",
  "point": {
    "lat": 31.241611,
    "lng": 121.436956
  },
  "address": "上海市普陀区长寿路828，846号",
  "province": "上海市",
  "city": "上海市",
  "phoneNumber": "(021)62523289",
  "image": "https://poi-pic.cdn.bcebos.com/swd/5d262415-a8a1-3ced-8e54-89c7488e5a8b.jpg@h_104,w_132,q_100",
  "rating": 4,
  "__v": 0,
  "sort": "星巴克"
},{
  "_id": {
    "$oid": "642149f790e61e9ede7b6abf"
  },
  "title": "星巴克(古北店)",
  "point": {
    "lat": 31.199506,
    "lng": 121.401039
  },
  "address": "上海市长宁区水城南路20号",
  "province": "上海市",
  "city": "上海市",
  "phoneNumber": "(021)62091760",
  "image": "https://poi-pic.cdn.bcebos.com/swd/5d262415-a8a1-3ced-8e54-89c7488e5a8b.jpg@h_104,w_132,q_100",
  "rating": 4,
  "__v": 0,
  "sort": "星巴克"
},{
  "_id": {
    "$oid": "642149f790e61e9ede7b6ac0"
  },
  "title": "星巴克(时尚中心店)",
  "point": {
    "lat": 31.277205,
    "lng": 121.564836
  },
  "address": "上海市杨浦区杨树浦路2866号杨浦奥特莱斯F1",
  "province": "上海市",
  "city": "上海市",
  "phoneNumber": "(021)55895099",
  "image": "https://poi-pic.cdn.bcebos.com/swd/5d262415-a8a1-3ced-8e54-89c7488e5a8b.jpg@h_104,w_132,q_100",
  "rating": 4,
  "__v": 0,
  "sort": "星巴克"
},{
  "_id": {
    "$oid": "642149f790e61e9ede7b6ac1"
  },
  "title": "星巴克(久金广场店)",
  "point": {
    "lat": 31.261899,
    "lng": 121.587678
  },
  "address": "上海市浦东新区张杨路3918号久金广场F2",
  "province": "上海市",
  "city": "上海市",
  "phoneNumber": "(021)58389138",
  "image": "https://poi-pic.cdn.bcebos.com/swd/5d262415-a8a1-3ced-8e54-89c7488e5a8b.jpg@h_104,w_132,q_100",
  "rating": 4,
  "__v": 0,
  "sort": "星巴克"
},{
  "_id": {
    "$oid": "642149f790e61e9ede7b6ac2"
  },
  "title": "星巴克(万都店)",
  "point": {
    "lat": 31.211175,
    "lng": 121.411781
  },
  "address": "上海市长宁区兴义路8号万都商城F1",
  "province": "上海市",
  "city": "上海市",
  "phoneNumber": "(021)52082980",
  "image": "https://poi-pic.cdn.bcebos.com/swd/5d262415-a8a1-3ced-8e54-89c7488e5a8b.jpg@h_104,w_132,q_100",
  "rating": 3,
  "__v": 0,
  "sort": "星巴克"
},{
  "_id": {
    "$oid": "642149f790e61e9ede7b6ac3"
  },
  "title": "星巴克(永新店)",
  "point": {
    "lat": 31.198879,
    "lng": 121.449348
  },
  "address": "上海市徐汇区辛耕路129号",
  "province": "上海市",
  "city": "上海市",
  "phoneNumber": "(021)33686172",
  "image": "https://poi-pic.cdn.bcebos.com/swd/5d262415-a8a1-3ced-8e54-89c7488e5a8b.jpg@h_104,w_132,q_100",
  "rating": 4,
  "__v": 0,
  "sort": "星巴克"
},{
  "_id": {
    "$oid": "642149f790e61e9ede7b6ac4"
  },
  "title": "星巴克(名仕苑店)",
  "point": {
    "lat": 31.202139,
    "lng": 121.440497
  },
  "address": "上海市徐汇区广元西路98号3-4室",
  "province": "上海市",
  "city": "上海市",
  "phoneNumber": "(021)54365338",
  "image": "https://poi-pic.cdn.bcebos.com/swd/5d262415-a8a1-3ced-8e54-89c7488e5a8b.jpg@h_104,w_132,q_100",
  "rating": 4,
  "__v": 0,
  "sort": "星巴克"
},{
  "_id": {
    "$oid": "642149f790e61e9ede7b6ac5"
  },
  "title": "星巴克(打浦路店)",
  "point": {
    "lat": 31.210004,
    "lng": 121.476581
  },
  "address": "上海市黄浦区打浦路58号1-2层裙房B区",
  "province": "上海市",
  "city": "上海市",
  "phoneNumber": "(021)63301289",
  "image": "https://poi-pic.cdn.bcebos.com/swd/5d262415-a8a1-3ced-8e54-89c7488e5a8b.jpg@h_104,w_132,q_100",
  "rating": 3,
  "__v": 0,
  "sort": "星巴克"
},{
  "_id": {
    "$oid": "642149f790e61e9ede7b6ac6"
  },
  "title": "星巴克臻选上海烘焙工坊",
  "point": {
    "lat": 31.236708,
    "lng": 121.468986
  },
  "address": "上海市静安区南京西路789号兴业太古汇N110-N201单元",
  "province": "上海市",
  "city": "上海市",
  "phoneNumber": "4008206998",
  "image": "https://poi-pic.cdn.bcebos.com/swd/5d262415-a8a1-3ced-8e54-89c7488e5a8b.jpg@h_104,w_132,q_100",
  "rating": 4,
  "__v": 0,
  "sort": "星巴克"
},{
  "_id": {
    "$oid": "642149f790e61e9ede7b6ac7"
  },
  "title": "星巴克(好望角店)",
  "point": {
    "lat": 31.207451,
    "lng": 121.460688
  },
  "address": "上海市徐汇区肇嘉浜路500号",
  "province": "上海市",
  "city": "上海市",
  "phoneNumber": "4008206998",
  "image": "https://poi-pic.cdn.bcebos.com/swd/5d262415-a8a1-3ced-8e54-89c7488e5a8b.jpg@h_104,w_132,q_100",
  "rating": 4,
  "__v": 0,
  "sort": "星巴克"
},{
  "_id": {
    "$oid": "642149f790e61e9ede7b6ac8"
  },
  "title": "星巴克(昭化路店)",
  "point": {
    "lat": 31.217537,
    "lng": 121.429956
  },
  "address": "上海市长宁区定西路1026号",
  "province": "上海市",
  "city": "上海市",
  "phoneNumber": "(021)52360265",
  "image": "https://poi-pic.cdn.bcebos.com/swd/5d262415-a8a1-3ced-8e54-89c7488e5a8b.jpg@h_104,w_132,q_100",
  "rating": 3,
  "__v": 0,
  "sort": "星巴克"
},{
  "_id": {
    "$oid": "642149f790e61e9ede7b6ac9"
  },
  "title": "星巴克(科产大厦店)",
  "point": {
    "lat": 31.177929,
    "lng": 121.408243
  },
  "address": "上海市徐汇区宜山路900号科产大厦A座1F",
  "province": "上海市",
  "city": "上海市",
  "phoneNumber": "(021)64279072",
  "image": "https://poi-pic.cdn.bcebos.com/swd/5d262415-a8a1-3ced-8e54-89c7488e5a8b.jpg@h_104,w_132,q_100",
  "rating": 4,
  "__v": 0,
  "sort": "星巴克"
},{
  "_id": {
    "$oid": "642149f790e61e9ede7b6aca"
  },
  "title": "星巴克(中江路店)",
  "point": {
    "lat": 31.241366,
    "lng": 121.398423
  },
  "address": "上海市普陀区中江路889号",
  "province": "上海市",
  "city": "上海市",
  "phoneNumber": "(021)52991350",
  "image": "https://poi-pic.cdn.bcebos.com/swd/5d262415-a8a1-3ced-8e54-89c7488e5a8b.jpg@h_104,w_132,q_100",
  "rating": 4,
  "__v": 0,
  "sort": "星巴克"
},{
  "_id": {
    "$oid": "642149f790e61e9ede7b6acb"
  },
  "title": "星巴克(周浦医院店)",
  "point": {
    "lat": 31.103746,
    "lng": 121.60213
  },
  "address": "上海市浦东新区周园路1500号",
  "province": "上海市",
  "city": "上海市",
  "phoneNumber": "(021)68070316",
  "image": "https://poi-pic.cdn.bcebos.com/swd/5d262415-a8a1-3ced-8e54-89c7488e5a8b.jpg@h_104,w_132,q_100",
  "rating": 3,
  "__v": 0,
  "sort": "星巴克"
},{
  "_id": {
    "$oid": "642149f790e61e9ede7b6acc"
  },
  "title": "星巴克(开新里店)",
  "point": {
    "lat": 31.165204,
    "lng": 121.578172
  },
  "address": "上海市浦东新区御桥路1949号开新里F1",
  "province": "上海市",
  "city": "上海市",
  "phoneNumber": "(021)50690120",
  "image": "https://poi-pic.cdn.bcebos.com/swd/5d262415-a8a1-3ced-8e54-89c7488e5a8b.jpg@h_104,w_132,q_100",
  "rating": 3,
  "__v": 0,
  "sort": "星巴克"
},{
  "_id": {
    "$oid": "642149f790e61e9ede7b6acd"
  },
  "title": "星巴克(常德路店)",
  "point": {
    "lat": 31.24335,
    "lng": 121.447297
  },
  "address": "上海市静安区常德路1042号",
  "province": "上海市",
  "city": "上海市",
  "phoneNumber": "(021)62370182",
  "image": "https://poi-pic.cdn.bcebos.com/swd/5d262415-a8a1-3ced-8e54-89c7488e5a8b.jpg@h_104,w_132,q_100",
  "rating": 4,
  "__v": 0,
  "sort": "星巴克"
},{
  "_id": {
    "$oid": "642149f790e61e9ede7b6ace"
  },
  "title": "星巴克(汇融天地店)",
  "point": {
    "lat": 31.243001,
    "lng": 121.424778
  },
  "address": "上海市普陀区曹杨路555号汇融天地F1",
  "province": "上海市",
  "city": "上海市",
  "phoneNumber": "(021)62371037",
  "image": "https://poi-pic.cdn.bcebos.com/swd/5d262415-a8a1-3ced-8e54-89c7488e5a8b.jpg@h_104,w_132,q_100",
  "rating": 3,
  "__v": 0,
  "sort": "星巴克"
},{
  "_id": {
    "$oid": "642149f790e61e9ede7b6acf"
  },
  "title": "星巴克(中锐店)",
  "point": {
    "lat": 31.264024,
    "lng": 121.502057
  },
  "address": "上海市虹口区通州路300号1层",
  "province": "上海市",
  "city": "上海市",
  "phoneNumber": "(021)35080012",
  "image": "https://poi-pic.cdn.bcebos.com/swd/5d262415-a8a1-3ced-8e54-89c7488e5a8b.jpg@h_104,w_132,q_100",
  "rating": 3,
  "__v": 0,
  "sort": "星巴克"
},{
  "_id": {
    "$oid": "642149f790e61e9ede7b6ad0"
  },
  "title": "星巴克(五彩城店)",
  "point": {
    "lat": 31.31843,
    "lng": 121.323535
  },
  "address": "上海市嘉定区南翔镇宝翔路801号五彩城F1",
  "province": "上海市",
  "city": "上海市",
  "phoneNumber": "(021)59553120",
  "image": "https://poi-pic.cdn.bcebos.com/swd/5d262415-a8a1-3ced-8e54-89c7488e5a8b.jpg@h_104,w_132,q_100",
  "rating": 3,
  "__v": 0,
  "sort": "星巴克"
},{
  "_id": {
    "$oid": "642149f790e61e9ede7b6ad1"
  },
  "title": "星巴克(浦东国际机场6店)",
  "point": {
    "lat": 31.157743,
    "lng": 121.81519
  },
  "address": "上海市浦东新区机场镇纬一路100号上海浦东国际机场F2",
  "province": "上海市",
  "city": "上海市",
  "phoneNumber": "(021)68332575",
  "image": "https://poi-pic.cdn.bcebos.com/swd/5d262415-a8a1-3ced-8e54-89c7488e5a8b.jpg@h_104,w_132,q_100",
  "rating": 4,
  "__v": 0,
  "sort": "星巴克"
},{
  "_id": {
    "$oid": "642149f790e61e9ede7b6ad2"
  },
  "title": "星巴克(古美路2店)",
  "point": {
    "lat": 31.171756,
    "lng": 121.406067
  },
  "address": "上海市徐汇区古美路1582号soho区b楼b1层d-2号",
  "province": "上海市",
  "city": "上海市",
  "phoneNumber": "(021)64755761",
  "image": "https://poi-pic.cdn.bcebos.com/swd/5d262415-a8a1-3ced-8e54-89c7488e5a8b.jpg@h_104,w_132,q_100",
  "rating": 3,
  "__v": 0,
  "sort": "星巴克"
},{
  "_id": {
    "$oid": "642149fa90e61e9ede7b6ad4"
  },
  "title": "星巴克(外滩店)",
  "point": {
    "lat": 31.245896,
    "lng": 121.497105
  },
  "address": "上海市黄浦区中山东一路367号",
  "province": "上海市",
  "city": "上海市",
  "phoneNumber": "(021)33130791",
  "image": "https://poi-pic.cdn.bcebos.com/swd/5d262415-a8a1-3ced-8e54-89c7488e5a8b.jpg@h_104,w_132,q_100",
  "rating": 4,
  "__v": 0,
  "sort": "星巴克"
},{
  "_id": {
    "$oid": "642149fa90e61e9ede7b6ad5"
  },
  "title": "星巴克(森兰美伦店)",
  "point": {
    "lat": 31.323396,
    "lng": 121.600792
  },
  "address": "上海市浦东新区兰嵩路555号B幢119室",
  "province": "上海市",
  "city": "上海市",
  "phoneNumber": "(021)50206159",
  "image": "https://poi-pic.cdn.bcebos.com/swd/5d262415-a8a1-3ced-8e54-89c7488e5a8b.jpg@h_104,w_132,q_100",
  "rating": 3,
  "__v": 0,
  "sort": "星巴克"
},{
  "_id": {
    "$oid": "64214aa690e61e9ede7b6ad7"
  },
  "title": "星巴克(滨江店)",
  "point": {
    "lat": 31.240773,
    "lng": 121.50416
  },
  "address": "上海市浦东新区拾步街9号富都世界富城路休闲街F1号",
  "province": "上海市",
  "city": "上海市",
  "phoneNumber": "(021)58781332",
  "image": "https://poi-pic.cdn.bcebos.com/swd/5d262415-a8a1-3ced-8e54-89c7488e5a8b.jpg@h_104,w_132,q_100",
  "rating": 4,
  "__v": 0,
  "sort": "星巴克"
},{
  "_id": {
    "$oid": "64214aa690e61e9ede7b6ad8"
  },
  "title": "星巴克(文汇路店)",
  "point": {
    "lat": 31.05576,
    "lng": 121.221957
  },
  "address": "上海市松江区文汇路258号1区-1商铺",
  "province": "上海市",
  "city": "上海市",
  "phoneNumber": "(021)37700570",
  "image": "https://poi-pic.cdn.bcebos.com/swd/5d262415-a8a1-3ced-8e54-89c7488e5a8b.jpg@h_104,w_132,q_100",
  "rating": 4,
  "__v": 0,
  "sort": "星巴克"
},{
  "_id": {
    "$oid": "64214aa690e61e9ede7b6ad9"
  },
  "title": "星巴克(纳贤路店)",
  "point": {
    "lat": 31.183804,
    "lng": 121.612234
  },
  "address": "上海市浦东新区纳贤路800号2号楼105室",
  "province": "上海市",
  "city": "上海市",
  "phoneNumber": "(021)58582932",
  "image": "https://poi-pic.cdn.bcebos.com/swd/5d262415-a8a1-3ced-8e54-89c7488e5a8b.jpg@h_104,w_132,q_100",
  "rating": 3,
  "__v": 0,
  "sort": "星巴克"
},{
  "_id": {
    "$oid": "64214aa690e61e9ede7b6ada"
  },
  "title": "星巴克(人民坊店)",
  "point": {
    "lat": 31.224198,
    "lng": 121.46874
  },
  "address": "上海市黄浦区淮海中路835号1~3F",
  "province": "上海市",
  "city": "上海市",
  "phoneNumber": "(021)54590752",
  "image": "https://poi-pic.cdn.bcebos.com/swd/5d262415-a8a1-3ced-8e54-89c7488e5a8b.jpg@h_104,w_132,q_100",
  "rating": 4,
  "__v": 0,
  "sort": "星巴克"
},{
  "_id": {
    "$oid": "64214aa690e61e9ede7b6adb"
  },
  "title": "星巴克(申北路店)",
  "point": {
    "lat": 31.09768,
    "lng": 121.392564
  },
  "address": "上海市闵行区申北路8号",
  "province": "上海市",
  "city": "上海市",
  "phoneNumber": "(021)54291923",
  "image": "https://poi-pic.cdn.bcebos.com/swd/5d262415-a8a1-3ced-8e54-89c7488e5a8b.jpg@h_104,w_132,q_100",
  "rating": 4,
  "__v": 0,
  "sort": "星巴克"
},{
  "_id": {
    "$oid": "64214aa690e61e9ede7b6adc"
  },
  "title": "星巴克(新华路店)",
  "point": {
    "lat": 31.210017,
    "lng": 121.42939
  },
  "address": "上海市长宁区新华路519号1B室",
  "province": "上海市",
  "city": "上海市",
  "phoneNumber": "(021)62803927",
  "image": "https://poi-pic.cdn.bcebos.com/swd/5d262415-a8a1-3ced-8e54-89c7488e5a8b.jpg@h_104,w_132,q_100",
  "rating": 4,
  "__v": 0,
  "sort": "星巴克"
},{
  "_id": {
    "$oid": "64214aa690e61e9ede7b6add"
  },
  "title": "星巴克(吴中路店)",
  "point": {
    "lat": 31.182071,
    "lng": 121.391544
  },
  "address": "上海市闵行区吴中路1169号-1",
  "province": "上海市",
  "city": "上海市",
  "phoneNumber": "(021)54222091",
  "image": "https://poi-pic.cdn.bcebos.com/swd/5d262415-a8a1-3ced-8e54-89c7488e5a8b.jpg@h_104,w_132,q_100",
  "rating": 3,
  "__v": 0,
  "sort": "星巴克"
},{
  "_id": {
    "$oid": "64214aa690e61e9ede7b6ade"
  },
  "title": "星巴克(均瑶店)",
  "point": {
    "lat": 31.204648,
    "lng": 121.45495
  },
  "address": "上海市徐汇区肇嘉浜路789号1F",
  "province": "上海市",
  "city": "上海市",
  "phoneNumber": "(021)64161632",
  "image": "https://poi-pic.cdn.bcebos.com/swd/5d262415-a8a1-3ced-8e54-89c7488e5a8b.jpg@h_104,w_132,q_100",
  "rating": 4,
  "__v": 0,
  "sort": "星巴克"
},{
  "_id": {
    "$oid": "64214aa690e61e9ede7b6adf"
  },
  "title": "星巴克(朵云轩店)",
  "point": {
    "lat": 31.180091,
    "lng": 121.454356
  },
  "address": "上海市徐汇区天钥桥路1188弄",
  "province": "上海市",
  "city": "上海市",
  "phoneNumber": "(021)64386376",
  "image": "https://poi-pic.cdn.bcebos.com/swd/5d262415-a8a1-3ced-8e54-89c7488e5a8b.jpg@h_104,w_132,q_100",
  "rating": 4,
  "__v": 0,
  "sort": "星巴克"
},{
  "_id": {
    "$oid": "64214aa690e61e9ede7b6ae0"
  },
  "title": "星巴克(瑞金路店)",
  "point": {
    "lat": 31.221253,
    "lng": 121.471611
  },
  "address": "上海市黄浦区瑞金二路101－107号",
  "province": "上海市",
  "city": "上海市",
  "phoneNumber": "(021)53062578",
  "image": "https://poi-pic.cdn.bcebos.com/swd/5d262415-a8a1-3ced-8e54-89c7488e5a8b.jpg@h_104,w_132,q_100",
  "rating": 4,
  "__v": 0,
  "sort": "星巴克"
},{
  "_id": {
    "$oid": "64214aa690e61e9ede7b6ae1"
  },
  "title": "星巴克(800秀店)",
  "point": {
    "lat": 31.240063,
    "lng": 121.449338
  },
  "address": "上海市静安区常德路800号",
  "province": "上海市",
  "city": "上海市",
  "phoneNumber": "(021)62552462",
  "image": "https://poi-pic.cdn.bcebos.com/swd/5d262415-a8a1-3ced-8e54-89c7488e5a8b.jpg@h_104,w_132,q_100",
  "rating": 4,
  "__v": 0,
  "sort": "星巴克"
},{
  "_id": {
    "$oid": "64214aa690e61e9ede7b6ae2"
  },
  "title": "星巴克(恒丰路店)",
  "point": {
    "lat": 31.249082,
    "lng": 121.463047
  },
  "address": "上海市静安区恒丰路299号隆宇国际商务广场中101-07号",
  "province": "上海市",
  "city": "上海市",
  "phoneNumber": "(021)52560830",
  "image": "https://poi-pic.cdn.bcebos.com/swd/5d262415-a8a1-3ced-8e54-89c7488e5a8b.jpg@h_104,w_132,q_100",
  "rating": 4,
  "__v": 0,
  "sort": "星巴克"
},{
  "_id": {
    "$oid": "64214aa690e61e9ede7b6ae3"
  },
  "title": "星巴克(E朋汇店)",
  "point": {
    "lat": 31.26622,
    "lng": 121.531878
  },
  "address": "上海市杨浦区江浦路627号24幢101室",
  "province": "上海市",
  "city": "上海市",
  "phoneNumber": "(021)55900015",
  "image": "https://poi-pic.cdn.bcebos.com/swd/5d262415-a8a1-3ced-8e54-89c7488e5a8b.jpg@h_104,w_132,q_100",
  "rating": 4,
  "__v": 0,
  "sort": "星巴克"
},{
  "_id": {
    "$oid": "64214aa690e61e9ede7b6ae4"
  },
  "title": "星巴克(星游城店)",
  "point": {
    "lat": 31.191272,
    "lng": 121.448783
  },
  "address": "上海市徐汇区天钥桥路580号星游城F1",
  "province": "上海市",
  "city": "上海市",
  "phoneNumber": "(021)54660125",
  "image": "https://poi-pic.cdn.bcebos.com/swd/5d262415-a8a1-3ced-8e54-89c7488e5a8b.jpg@h_104,w_132,q_100",
  "rating": 4,
  "__v": 0,
  "sort": "星巴克"
},{
  "_id": {
    "$oid": "64214aa690e61e9ede7b6ae5"
  },
  "title": "星巴克(安波路店)",
  "point": {
    "lat": 31.308489,
    "lng": 121.537345
  },
  "address": "上海市杨浦区安波路419号",
  "province": "上海市",
  "city": "上海市",
  "phoneNumber": "(021)65662378",
  "image": "https://poi-pic.cdn.bcebos.com/swd/5d262415-a8a1-3ced-8e54-89c7488e5a8b.jpg@h_104,w_132,q_100",
  "rating": 4,
  "__v": 0,
  "sort": "星巴克"
},{
  "_id": {
    "$oid": "64214aa690e61e9ede7b6ae6"
  },
  "title": "星巴克(汾阳路店)",
  "point": {
    "lat": 31.216001,
    "lng": 121.459358
  },
  "address": "上海市徐汇区汾阳路138号1楼03单元",
  "province": "上海市",
  "city": "上海市",
  "phoneNumber": "(021)54650525",
  "image": "https://poi-pic.cdn.bcebos.com/swd/5d262415-a8a1-3ced-8e54-89c7488e5a8b.jpg@h_104,w_132,q_100",
  "rating": 3,
  "__v": 0,
  "sort": "星巴克"
},{
  "_id": {
    "$oid": "64214aa690e61e9ede7b6ae7"
  },
  "title": "星巴克(漕河泾2店)",
  "point": {
    "lat": 31.169623,
    "lng": 121.410473
  },
  "address": "上海市徐汇区桂平路391号",
  "province": "上海市",
  "city": "上海市",
  "phoneNumber": "(021)54043672",
  "image": "https://poi-pic.cdn.bcebos.com/swd/5d262415-a8a1-3ced-8e54-89c7488e5a8b.jpg@h_104,w_132,q_100",
  "rating": 4,
  "__v": 0,
  "sort": "星巴克"
},{
  "_id": {
    "$oid": "64214aa690e61e9ede7b6ae8"
  },
  "title": "星巴克(四平路店)",
  "point": {
    "lat": 31.268098,
    "lng": 121.497675
  },
  "address": "上海市虹口区四平路188号113、116室",
  "province": "上海市",
  "city": "上海市",
  "phoneNumber": "(021)56373691",
  "image": "https://poi-pic.cdn.bcebos.com/swd/5d262415-a8a1-3ced-8e54-89c7488e5a8b.jpg@h_104,w_132,q_100",
  "rating": 4,
  "__v": 0,
  "sort": "星巴克"
},{
  "_id": {
    "$oid": "64214aa690e61e9ede7b6ae9"
  },
  "title": "星巴克(H88店)",
  "point": {
    "lat": 31.177462,
    "lng": 121.417015
  },
  "address": "上海市徐汇区虹漕路88号H88越虹广场B座1层",
  "province": "上海市",
  "city": "上海市",
  "phoneNumber": "(021)64150107",
  "image": "https://poi-pic.cdn.bcebos.com/swd/5d262415-a8a1-3ced-8e54-89c7488e5a8b.jpg@h_104,w_132,q_100",
  "rating": 3,
  "__v": 0,
  "sort": "星巴克"
},{
  "_id": {
    "$oid": "64214aa690e61e9ede7b6aea"
  },
  "title": "星巴克(黄浦新苑店)",
  "point": {
    "lat": 31.216287,
    "lng": 121.492829
  },
  "address": "上海市黄浦区西藏南路1130号",
  "province": "上海市",
  "city": "上海市",
  "phoneNumber": "(021)63526369",
  "image": "https://poi-pic.cdn.bcebos.com/swd/5d262415-a8a1-3ced-8e54-89c7488e5a8b.jpg@h_104,w_132,q_100",
  "rating": 4,
  "__v": 0,
  "sort": "星巴克"
},{
  "_id": {
    "$oid": "64214beb90e61e9ede7b6aec"
  },
  "title": "星巴克(花乡奥莱村店)",
  "point": {
    "lat": 39.833365,
    "lng": 116.328895
  },
  "address": "北京市丰台区白盆窑南四环西路76号花乡奥莱村F1",
  "province": "北京市",
  "city": "北京市",
  "phoneNumber": "(010)83798670",
  "image": "https://poi-pic.cdn.bcebos.com/swd/5d262415-a8a1-3ced-8e54-89c7488e5a8b.jpg@h_104,w_132,q_100",
  "rating": 4,
  "__v": 0,
  "sort": "星巴克"
},{
  "_id": {
    "$oid": "64214beb90e61e9ede7b6aed"
  },
  "title": "星巴克(西环广场2期店)",
  "point": {
    "lat": 39.947385,
    "lng": 116.359684
  },
  "address": "北京市西城区西直门外大街1号",
  "province": "北京市",
  "city": "北京市",
  "phoneNumber": "(010)58301228",
  "image": "https://poi-pic.cdn.bcebos.com/swd/5d262415-a8a1-3ced-8e54-89c7488e5a8b.jpg@h_104,w_132,q_100",
  "rating": 4,
  "__v": 0,
  "sort": "星巴克"
},{
  "_id": {
    "$oid": "64214beb90e61e9ede7b6aee"
  },
  "title": "星巴克(北京大栅栏店)",
  "point": {
    "lat": 39.903946,
    "lng": 116.400689
  },
  "address": "北京市西城区大栅栏街道弓字胡同10号",
  "province": "北京市",
  "city": "北京市",
  "phoneNumber": "(010)63132022",
  "image": "https://poi-pic.cdn.bcebos.com/swd/5d262415-a8a1-3ced-8e54-89c7488e5a8b.jpg@h_104,w_132,q_100",
  "rating": 4,
  "__v": 0,
  "sort": "星巴克"
},{
  "_id": {
    "$oid": "64214beb90e61e9ede7b6aef"
  },
  "title": "星巴克(北太平庄路店)",
  "point": {
    "lat": 39.974617,
    "lng": 116.377559
  },
  "address": "北京市海淀区北太平庄路18号27(-04)中A座01层102室和A座02层210室",
  "province": "北京市",
  "city": "北京市",
  "phoneNumber": "(010)62426435",
  "image": "https://poi-pic.cdn.bcebos.com/swd/5d262415-a8a1-3ced-8e54-89c7488e5a8b.jpg@h_104,w_132,q_100",
  "rating": 4,
  "__v": 0,
  "sort": "星巴克"
},{
  "_id": {
    "$oid": "64214beb90e61e9ede7b6af0"
  },
  "title": "星巴克(首钢店)",
  "point": {
    "lat": 39.928236,
    "lng": 116.161543
  },
  "address": "北京市石景山区阜石路首钢园区首钢主厂区内第二炼铁厂第23幢",
  "province": "北京市",
  "city": "北京市",
  "phoneNumber": "(010)88296062",
  "image": "https://poi-pic.cdn.bcebos.com/swd/5d262415-a8a1-3ced-8e54-89c7488e5a8b.jpg@h_104,w_132,q_100",
  "rating": 4,
  "__v": 0,
  "sort": "星巴克"
},{
  "_id": {
    "$oid": "64214beb90e61e9ede7b6af1"
  },
  "title": "星巴克(三里屯soho二店)",
  "point": {
    "lat": 39.938115,
    "lng": 116.460223
  },
  "address": "北京市朝阳区工人体育场北路8号院三里屯SOHO商场-3号楼F1",
  "province": "北京市",
  "city": "北京市",
  "phoneNumber": "(010)85900279",
  "image": "https://poi-pic.cdn.bcebos.com/swd/5d262415-a8a1-3ced-8e54-89c7488e5a8b.jpg@h_104,w_132,q_100",
  "rating": 4,
  "__v": 0,
  "sort": "星巴克"
},{
  "_id": {
    "$oid": "64214beb90e61e9ede7b6af2"
  },
  "title": "星巴克(丽都店)",
  "point": {
    "lat": 39.982744,
    "lng": 116.485564
  },
  "address": "北京市朝阳区将台路6号丽都广场1层",
  "province": "北京市",
  "city": "北京市",
  "phoneNumber": "(010)64376825",
  "image": "https://poi-pic.cdn.bcebos.com/swd/5d262415-a8a1-3ced-8e54-89c7488e5a8b.jpg@h_104,w_132,q_100",
  "rating": 4,
  "__v": 0,
  "sort": "星巴克"
},{
  "_id": {
    "$oid": "64214beb90e61e9ede7b6af3"
  },
  "title": "星巴克(紫檀大厦店)",
  "point": {
    "lat": 39.918157,
    "lng": 116.547932
  },
  "address": "北京市朝阳区建国路27号院1号楼1至17层101内1层02单元",
  "province": "北京市",
  "city": "北京市",
  "phoneNumber": "(010)85774421",
  "image": "https://poi-pic.cdn.bcebos.com/swd/5d262415-a8a1-3ced-8e54-89c7488e5a8b.jpg@h_104,w_132,q_100",
  "rating": 4,
  "__v": 0,
  "sort": "星巴克"
},{
  "_id": {
    "$oid": "64214beb90e61e9ede7b6af4"
  },
  "title": "星巴克(上地三街店)",
  "point": {
    "lat": 40.042483,
    "lng": 116.314721
  },
  "address": "北京市海淀区上地三街9号B座B-1号及B座首层玻璃间",
  "province": "北京市",
  "city": "北京市",
  "phoneNumber": "(010)62974838",
  "image": "https://poi-pic.cdn.bcebos.com/swd/5d262415-a8a1-3ced-8e54-89c7488e5a8b.jpg@h_104,w_132,q_100",
  "rating": 4,
  "__v": 0,
  "sort": "星巴克"
},{
  "_id": {
    "$oid": "64214beb90e61e9ede7b6af5"
  },
  "title": "星巴克(北京悦荟广场店)",
  "point": {
    "lat": 40.218216,
    "lng": 116.24474
  },
  "address": "北京市昌平区南环路10号北京悦荟广场F1",
  "province": "北京市",
  "city": "北京市",
  "phoneNumber": "(010)69710031",
  "image": "https://poi-pic.cdn.bcebos.com/swd/5d262415-a8a1-3ced-8e54-89c7488e5a8b.jpg@h_104,w_132,q_100",
  "rating": 4,
  "__v": 0,
  "sort": "星巴克"
},{
  "_id": {
    "$oid": "64214beb90e61e9ede7b6af6"
  },
  "title": "星巴克(望京鹏景阁店)",
  "point": {
    "lat": 40.003371,
    "lng": 116.473823
  },
  "address": "北京市朝阳区望京湖光中街1号鹏景阁首层",
  "province": "北京市",
  "city": "北京市",
  "phoneNumber": "(010)84724218",
  "image": "https://poi-pic.cdn.bcebos.com/swd/5d262415-a8a1-3ced-8e54-89c7488e5a8b.jpg@h_104,w_132,q_100",
  "rating": 4,
  "__v": 0,
  "sort": "星巴克"
},{
  "_id": {
    "$oid": "64214beb90e61e9ede7b6af7"
  },
  "title": "星巴克(凯恒店)",
  "point": {
    "lat": 39.929817,
    "lng": 116.43905
  },
  "address": "北京市东城区朝阳门内大街2号B座一层04单元",
  "province": "北京市",
  "city": "北京市",
  "phoneNumber": "(010)85197361",
  "image": "https://poi-pic.cdn.bcebos.com/swd/5d262415-a8a1-3ced-8e54-89c7488e5a8b.jpg@h_104,w_132,q_100",
  "rating": 4,
  "__v": 0,
  "sort": "星巴克"
},{
  "_id": {
    "$oid": "64214beb90e61e9ede7b6af8"
  },
  "title": "星巴克(朝阳大悦城店)",
  "point": {
    "lat": 39.931064,
    "lng": 116.524741
  },
  "address": "北京市朝阳区朝阳北路101号朝阳大悦城F5",
  "province": "北京市",
  "city": "北京市",
  "phoneNumber": "(010)85564387",
  "image": "https://poi-pic.cdn.bcebos.com/swd/5d262415-a8a1-3ced-8e54-89c7488e5a8b.jpg@h_104,w_132,q_100",
  "rating": 3,
  "__v": 0,
  "sort": "星巴克"
},{
  "_id": {
    "$oid": "64214beb90e61e9ede7b6af9"
  },
  "title": "星巴克(当代商城鼎城店)",
  "point": {
    "lat": 39.931204,
    "lng": 116.203244
  },
  "address": "北京市石景山区阜石路165号当代商城F1",
  "province": "北京市",
  "city": "北京市",
  "phoneNumber": "(010)88939330",
  "image": "https://poi-pic.cdn.bcebos.com/swd/5d262415-a8a1-3ced-8e54-89c7488e5a8b.jpg@h_104,w_132,q_100",
  "rating": 4,
  "__v": 0,
  "sort": "星巴克"
},{
  "_id": {
    "$oid": "64214beb90e61e9ede7b6afa"
  },
  "title": "星巴克(天畅园店)",
  "point": {
    "lat": 40.039283,
    "lng": 116.422458
  },
  "address": "北京市朝阳区天畅园7号楼1层108",
  "province": "北京市",
  "city": "北京市",
  "phoneNumber": "(010)84828823",
  "image": "https://poi-pic.cdn.bcebos.com/swd/5d262415-a8a1-3ced-8e54-89c7488e5a8b.jpg@h_104,w_132,q_100",
  "rating": 4,
  "__v": 0,
  "sort": "星巴克"
},{
  "_id": {
    "$oid": "64214beb90e61e9ede7b6afb"
  },
  "title": "星巴克(时代Life店)",
  "point": {
    "lat": 39.871524,
    "lng": 116.441947
  },
  "address": "北京市丰台区方庄蒲方路芳星园二区六号楼时代LifeF1",
  "province": "北京市",
  "city": "北京市",
  "phoneNumber": "(010)53702720",
  "image": "https://poi-pic.cdn.bcebos.com/swd/5d262415-a8a1-3ced-8e54-89c7488e5a8b.jpg@h_104,w_132,q_100",
  "rating": 4,
  "__v": 0,
  "sort": "星巴克"
},{
  "_id": {
    "$oid": "64214beb90e61e9ede7b6afc"
  },
  "title": "星巴克(乐成中心店)",
  "point": {
    "lat": 39.900067,
    "lng": 116.468811
  },
  "address": "北京市朝阳区东三环中路20~24号乐成中心SPACE3F1",
  "province": "北京市",
  "city": "北京市",
  "phoneNumber": "(010)67723170",
  "image": "https://poi-pic.cdn.bcebos.com/swd/5d262415-a8a1-3ced-8e54-89c7488e5a8b.jpg@h_104,w_132,q_100",
  "rating": 4,
  "__v": 0,
  "sort": "星巴克"
},{
  "_id": {
    "$oid": "64214beb90e61e9ede7b6afd"
  },
  "title": "星巴克(霄云路2店)",
  "point": {
    "lat": 39.961773,
    "lng": 116.469335
  },
  "address": "北京市朝阳区霄云路38号现代汽车大厦1层",
  "province": "北京市",
  "city": "北京市",
  "phoneNumber": "(010)64611302",
  "image": "https://poi-pic.cdn.bcebos.com/swd/5d262415-a8a1-3ced-8e54-89c7488e5a8b.jpg@h_104,w_132,q_100",
  "rating": 4,
  "__v": 0,
  "sort": "星巴克"
},{
  "_id": {
    "$oid": "64214beb90e61e9ede7b6afe"
  },
  "title": "星巴克(中发百旺商城店)",
  "point": {
    "lat": 40.035285,
    "lng": 116.282659
  },
  "address": "北京市海淀区圆明园西路18号中发百旺商城F1",
  "province": "北京市",
  "city": "北京市",
  "phoneNumber": "(010)62870892",
  "image": "https://poi-pic.cdn.bcebos.com/swd/5d262415-a8a1-3ced-8e54-89c7488e5a8b.jpg@h_104,w_132,q_100",
  "rating": 3,
  "__v": 0,
  "sort": "星巴克"
},{
  "_id": {
    "$oid": "64214beb90e61e9ede7b6aff"
  },
  "title": "星巴克(上地环洋大厦店)",
  "point": {
    "lat": 40.060014,
    "lng": 116.308658
  },
  "address": "北京市海淀区上地东路1号院7号楼环洋大厦1层东101",
  "province": "北京市",
  "city": "北京市",
  "phoneNumber": "(010)58858367",
  "image": "https://poi-pic.cdn.bcebos.com/swd/5d262415-a8a1-3ced-8e54-89c7488e5a8b.jpg@h_104,w_132,q_100",
  "rating": 4,
  "__v": 0,
  "sort": "星巴克"
},{
  "_id": {
    "$oid": "64214bf490e61e9ede7b6b01"
  },
  "title": "星巴克(温特莱中心店)",
  "point": {
    "lat": 39.918834,
    "lng": 116.483109
  },
  "address": "北京市朝阳区西大望路1号温特莱中心一层",
  "province": "北京市",
  "city": "北京市",
  "phoneNumber": "(010)65387097",
  "image": "https://poi-pic.cdn.bcebos.com/swd/5d262415-a8a1-3ced-8e54-89c7488e5a8b.jpg@h_104,w_132,q_100",
  "rating": 4,
  "__v": 0,
  "sort": "星巴克"
},{
  "_id": {
    "$oid": "64214bf490e61e9ede7b6b02"
  },
  "title": "星巴克(西海国际中心店)",
  "point": {
    "lat": 39.969621,
    "lng": 116.315479
  },
  "address": "北京市海淀区北三环西路99号院1号楼1F108",
  "province": "北京市",
  "city": "北京市",
  "phoneNumber": "(010)51626616",
  "image": "https://poi-pic.cdn.bcebos.com/swd/5d262415-a8a1-3ced-8e54-89c7488e5a8b.jpg@h_104,w_132,q_100",
  "rating": 4,
  "__v": 0,
  "sort": "星巴克"
},{
  "_id": {
    "$oid": "64214bf490e61e9ede7b6b03"
  },
  "title": "星巴克(北京万达广场店)",
  "point": {
    "lat": 39.914969,
    "lng": 116.479692
  },
  "address": "北京市朝阳区建国路93号院新世界百货F1",
  "province": "北京市",
  "city": "北京市",
  "phoneNumber": "(010)65812558",
  "image": "https://poi-pic.cdn.bcebos.com/swd/5d262415-a8a1-3ced-8e54-89c7488e5a8b.jpg@h_104,w_132,q_100",
  "rating": 4,
  "__v": 0,
  "sort": "星巴克"
},{
  "_id": {
    "$oid": "64214bf490e61e9ede7b6b04"
  },
  "title": "星巴克(公益西桥物美店)",
  "point": {
    "lat": 39.839142,
    "lng": 116.375736
  },
  "address": "北京市丰台区城南嘉园益城园16号楼1层B085单元",
  "province": "北京市",
  "city": "北京市",
  "phoneNumber": "(010)51020056",
  "image": "https://poi-pic.cdn.bcebos.com/swd/5d262415-a8a1-3ced-8e54-89c7488e5a8b.jpg@h_104,w_132,q_100",
  "rating": 4,
  "__v": 0,
  "sort": "星巴克"
},{
  "_id": {
    "$oid": "64214bf490e61e9ede7b6b05"
  },
  "title": "星巴克(路劲世界广场店)",
  "point": {
    "lat": 40.212911,
    "lng": 116.297393
  },
  "address": "北京市昌平区双营西路78号路劲世界广场1层",
  "province": "北京市",
  "city": "北京市",
  "phoneNumber": "(010)89735725",
  "image": "https://poi-pic.cdn.bcebos.com/swd/5d262415-a8a1-3ced-8e54-89c7488e5a8b.jpg@h_104,w_132,q_100",
  "rating": 4,
  "__v": 0,
  "sort": "星巴克"
},{
  "_id": {
    "$oid": "64214bf490e61e9ede7b6b06"
  },
  "title": "星巴克(方庄菩提店)",
  "point": {
    "lat": 39.86808,
    "lng": 116.446004
  },
  "address": "北京市丰台区方庄紫芳园四区3号楼7号商铺",
  "province": "北京市",
  "city": "北京市",
  "phoneNumber": "(010)87211072",
  "image": "https://poi-pic.cdn.bcebos.com/swd/5d262415-a8a1-3ced-8e54-89c7488e5a8b.jpg@h_104,w_132,q_100",
  "rating": 4,
  "__v": 0,
  "sort": "星巴克"
},{
  "_id": {
    "$oid": "64214bf490e61e9ede7b6b07"
  },
  "title": "星巴克(德外大街店)",
  "point": {
    "lat": 39.960505,
    "lng": 116.384653
  },
  "address": "北京市西城区德胜门外大街83号1层102号",
  "province": "北京市",
  "city": "北京市",
  "phoneNumber": "(010)82326181",
  "image": "https://poi-pic.cdn.bcebos.com/swd/5d262415-a8a1-3ced-8e54-89c7488e5a8b.jpg@h_104,w_132,q_100",
  "rating": 4,
  "__v": 0,
  "sort": "星巴克"
},{
  "_id": {
    "$oid": "64214bf490e61e9ede7b6b08"
  },
  "title": "星巴克(雍贵中心店)",
  "point": {
    "lat": 39.900081,
    "lng": 116.435073
  },
  "address": "北京市东城区广渠门内大街41号1层41-(01)01室",
  "province": "北京市",
  "city": "北京市",
  "phoneNumber": "(010)67121019",
  "image": "https://poi-pic.cdn.bcebos.com/swd/5d262415-a8a1-3ced-8e54-89c7488e5a8b.jpg@h_104,w_132,q_100",
  "rating": 3,
  "__v": 0,
  "sort": "星巴克"
},{
  "_id": {
    "$oid": "64214bf490e61e9ede7b6b09"
  },
  "title": "星巴克(生命园路店)",
  "point": {
    "lat": 40.107118,
    "lng": 116.27481
  },
  "address": "北京市昌平区生命科学园路4号楼1层102室",
  "province": "北京市",
  "city": "北京市",
  "phoneNumber": "(010)69733303",
  "image": "https://poi-pic.cdn.bcebos.com/swd/5d262415-a8a1-3ced-8e54-89c7488e5a8b.jpg@h_104,w_132,q_100",
  "rating": 3,
  "__v": 0,
  "sort": "星巴克"
},{
  "_id": {
    "$oid": "64214bf490e61e9ede7b6b0a"
  },
  "title": "星巴克(牡丹宾馆店)",
  "point": {
    "lat": 39.983434,
    "lng": 116.375946
  },
  "address": "市海淀区北京北京海淀区花园东路31号牡丹宾馆一层",
  "province": "北京市",
  "city": "北京市",
  "phoneNumber": "(010)52218578",
  "image": "https://poi-pic.cdn.bcebos.com/swd/5d262415-a8a1-3ced-8e54-89c7488e5a8b.jpg@h_104,w_132,q_100",
  "rating": 3,
  "__v": 0,
  "sort": "星巴克"
},{
  "_id": {
    "$oid": "64214bf490e61e9ede7b6b0b"
  },
  "title": "星巴克(国泰百货平谷店)",
  "point": {
    "lat": 40.146956,
    "lng": 117.117357
  },
  "address": "北京市平谷区文化北街13号国泰百货F1",
  "province": "北京市",
  "city": "北京市",
  "phoneNumber": "(010)89968048",
  "image": "https://poi-pic.cdn.bcebos.com/swd/5d262415-a8a1-3ced-8e54-89c7488e5a8b.jpg@h_104,w_132,q_100",
  "rating": 4,
  "__v": 0,
  "sort": "星巴克"
},{
  "_id": {
    "$oid": "64214bf490e61e9ede7b6b0c"
  },
  "title": "星巴克(亿利大厦店)",
  "point": {
    "lat": 39.919854,
    "lng": 116.476746
  },
  "address": "北京市朝阳区光华路15号院1号楼106室",
  "province": "北京市",
  "city": "北京市",
  "phoneNumber": "(010)65895549",
  "image": "https://poi-pic.cdn.bcebos.com/swd/5d262415-a8a1-3ced-8e54-89c7488e5a8b.jpg@h_104,w_132,q_100",
  "rating": 4,
  "__v": 0,
  "sort": "星巴克"
},{
  "_id": {
    "$oid": "64214bf490e61e9ede7b6b0d"
  },
  "title": "星巴克(蓝岛大厦朝阳店)",
  "point": {
    "lat": 39.928282,
    "lng": 116.45599
  },
  "address": "北京市朝阳区朝阳门外大街8号蓝岛大厦F1",
  "province": "北京市",
  "city": "北京市",
  "phoneNumber": "(010)85636413,4008206998",
  "image": "https://poi-pic.cdn.bcebos.com/swd/5d262415-a8a1-3ced-8e54-89c7488e5a8b.jpg@h_104,w_132,q_100",
  "rating": 3,
  "__v": 0,
  "sort": "星巴克"
},{
  "_id": {
    "$oid": "64214bf490e61e9ede7b6b0e"
  },
  "title": "星巴克(印象城翠微店)",
  "point": {
    "lat": 39.918581,
    "lng": 116.309743
  },
  "address": "北京市海淀区翠微路12号印象城F1",
  "province": "北京市",
  "city": "北京市",
  "phoneNumber": "(010)88633651",
  "image": "https://poi-pic.cdn.bcebos.com/swd/5d262415-a8a1-3ced-8e54-89c7488e5a8b.jpg@h_104,w_132,q_100",
  "rating": 4,
  "__v": 0,
  "sort": "星巴克"
},{
  "_id": {
    "$oid": "64214bf490e61e9ede7b6b0f"
  },
  "title": "星巴克(NTP新城广场店)",
  "point": {
    "lat": 39.874044,
    "lng": 116.428376
  },
  "address": "北京市丰台区方庄芳古园一区18号楼NTP新城广场F1",
  "province": "北京市",
  "city": "北京市",
  "phoneNumber": "(010)67653256",
  "image": "https://poi-pic.cdn.bcebos.com/swd/5d262415-a8a1-3ced-8e54-89c7488e5a8b.jpg@h_104,w_132,q_100",
  "rating": 4,
  "__v": 0,
  "sort": "星巴克"
},{
  "_id": {
    "$oid": "64214bf490e61e9ede7b6b10"
  },
  "title": "星巴克(SOHO现代城店)",
  "point": {
    "lat": 39.913472,
    "lng": 116.482138
  },
  "address": "北京市朝阳区建国路88号SOHO现代城一层801单元",
  "province": "北京市",
  "city": "北京市",
  "phoneNumber": "(010)85805263",
  "image": "https://poi-pic.cdn.bcebos.com/swd/5d262415-a8a1-3ced-8e54-89c7488e5a8b.jpg@h_104,w_132,q_100",
  "rating": 4,
  "__v": 0,
  "sort": "星巴克"
},{
  "_id": {
    "$oid": "64214bf490e61e9ede7b6b11"
  },
  "title": "星巴克(新闻大厦店)",
  "point": {
    "lat": 39.913597,
    "lng": 116.428425
  },
  "address": "北京市东城区建内大街19号新闻大厦1层",
  "province": "北京市",
  "city": "北京市",
  "phoneNumber": "(010)65240649",
  "image": "https://poi-pic.cdn.bcebos.com/swd/5d262415-a8a1-3ced-8e54-89c7488e5a8b.jpg@h_104,w_132,q_100",
  "rating": 4,
  "__v": 0,
  "sort": "星巴克"
},{
  "_id": {
    "$oid": "64214bf490e61e9ede7b6b12"
  },
  "title": "星巴克(北辰东路3店)",
  "point": {
    "lat": 39.997709,
    "lng": 116.41325
  },
  "address": "北京市朝阳区北辰东路8号院1号楼一层108单元",
  "province": "北京市",
  "city": "北京市",
  "phoneNumber": "(010)84971720",
  "image": "https://poi-pic.cdn.bcebos.com/swd/5d262415-a8a1-3ced-8e54-89c7488e5a8b.jpg@h_104,w_132,q_100",
  "rating": 4,
  "__v": 0,
  "sort": "星巴克"
},{
  "_id": {
    "$oid": "64214bf490e61e9ede7b6b13"
  },
  "title": "星巴克(财富购物中心店)",
  "point": {
    "lat": 39.923048,
    "lng": 116.464909
  },
  "address": "北京市朝阳区东三环中路7号财富购物中心F1",
  "province": "北京市",
  "city": "北京市",
  "phoneNumber": "(010)65309173",
  "image": "https://poi-pic.cdn.bcebos.com/swd/5d262415-a8a1-3ced-8e54-89c7488e5a8b.jpg@h_104,w_132,q_100",
  "rating": 4,
  "__v": 0,
  "sort": "星巴克"
},{
  "_id": {
    "$oid": "64214bf490e61e9ede7b6b14"
  },
  "title": "星巴克(海润店)",
  "point": {
    "lat": 39.982207,
    "lng": 116.489989
  },
  "address": "北京市朝阳区机场辅路将台路甲2号海润国际公寓底商1层",
  "province": "北京市",
  "city": "北京市",
  "image": "https://poi-pic.cdn.bcebos.com/swd/5d262415-a8a1-3ced-8e54-89c7488e5a8b.jpg@h_104,w_132,q_100",
  "rating": 4,
  "__v": 0,
  "sort": "星巴克"
},{
  "_id": {
    "$oid": "64214bf790e61e9ede7b6b16"
  },
  "title": "星巴克(北投科创社区)",
  "point": {
    "lat": 39.987437,
    "lng": 116.411221
  },
  "address": "北京市朝阳区安定路5号北京北投科苑社区店",
  "province": "北京市",
  "city": "北京市",
  "phoneNumber": "(010)59154768",
  "image": "https://poi-pic.cdn.bcebos.com/swd/5d262415-a8a1-3ced-8e54-89c7488e5a8b.jpg@h_104,w_132,q_100",
  "rating": 3,
  "__v": 0,
  "sort": "星巴克"
},{
  "_id": {
    "$oid": "64214bf790e61e9ede7b6b17"
  },
  "title": "星巴克(国贸三期店)",
  "point": {
    "lat": 39.918528,
    "lng": 116.465138
  },
  "address": "北京市朝阳区建国门外大街1号国贸商城北区F2",
  "province": "北京市",
  "city": "北京市",
  "phoneNumber": "(010)65057909",
  "image": "https://poi-pic.cdn.bcebos.com/swd/5d262415-a8a1-3ced-8e54-89c7488e5a8b.jpg@h_104,w_132,q_100",
  "rating": 4,
  "__v": 0,
  "sort": "星巴克"
},{
  "_id": {
    "$oid": "64214bf790e61e9ede7b6b18"
  },
  "title": "星巴克(SOHO3Q店)",
  "point": {
    "lat": 39.919303,
    "lng": 116.458466
  },
  "address": "北京市朝阳区光华路9号楼1层120室",
  "province": "北京市",
  "city": "北京市",
  "phoneNumber": "(010)85950710",
  "image": "https://poi-pic.cdn.bcebos.com/swd/5d262415-a8a1-3ced-8e54-89c7488e5a8b.jpg@h_104,w_132,q_100",
  "rating": 4,
  "__v": 0,
  "sort": "星巴克"
},{
  "_id": {
    "$oid": "64214bf790e61e9ede7b6b19"
  },
  "title": "星巴克(润枫水尚店)",
  "point": {
    "lat": 39.932431,
    "lng": 116.523191
  },
  "address": "北京市朝阳区青年路西里5号院16号楼1层04号",
  "province": "北京市",
  "city": "北京市",
  "phoneNumber": "(010)59125210",
  "image": "https://poi-pic.cdn.bcebos.com/swd/5d262415-a8a1-3ced-8e54-89c7488e5a8b.jpg@h_104,w_132,q_100",
  "rating": 3,
  "__v": 0,
  "sort": "星巴克"
},{
  "_id": {
    "$oid": "64214bf790e61e9ede7b6b1a"
  },
  "title": "星巴克(鸿坤广场店)",
  "point": {
    "lat": 39.796887,
    "lng": 116.346218
  },
  "address": "北京市大兴区西红门镇欣旺北大街8号鸿坤广场F1",
  "province": "北京市",
  "city": "北京市",
  "phoneNumber": "(010)60292130",
  "image": "https://poi-pic.cdn.bcebos.com/swd/5d262415-a8a1-3ced-8e54-89c7488e5a8b.jpg@h_104,w_132,q_100",
  "rating": 4,
  "__v": 0,
  "sort": "星巴克"
},{
  "_id": {
    "$oid": "64214bf790e61e9ede7b6b1b"
  },
  "title": "星巴克(新活馆店)",
  "point": {
    "lat": 39.905823,
    "lng": 116.419797
  },
  "address": "北京市东城区东打磨厂街与新怡家园西路交叉口东北40米新活馆F1",
  "province": "北京市",
  "city": "北京市",
  "phoneNumber": "(010)67011807",
  "image": "https://poi-pic.cdn.bcebos.com/swd/5d262415-a8a1-3ced-8e54-89c7488e5a8b.jpg@h_104,w_132,q_100",
  "rating": 3,
  "__v": 0,
  "sort": "星巴克"
},{
  "_id": {
    "$oid": "64214bf790e61e9ede7b6b1c"
  },
  "title": "星巴克(国航大厦店)",
  "point": {
    "lat": 39.96247,
    "lng": 116.46998
  },
  "address": "北京市朝阳区霄云路36号国航大厦一层",
  "province": "北京市",
  "city": "北京市",
  "phoneNumber": "(010)84475636",
  "image": "https://poi-pic.cdn.bcebos.com/swd/5d262415-a8a1-3ced-8e54-89c7488e5a8b.jpg@h_104,w_132,q_100",
  "rating": 4,
  "__v": 0,
  "sort": "星巴克"
},{
  "_id": {
    "$oid": "64214bf790e61e9ede7b6b1d"
  },
  "title": "星巴克(黄平路店)",
  "point": {
    "lat": 40.071919,
    "lng": 116.353934
  },
  "address": "北京市昌平区黄平路19号1号楼b单元101-02室",
  "province": "北京市",
  "city": "北京市",
  "phoneNumber": "(010)82540252",
  "image": "https://poi-pic.cdn.bcebos.com/swd/5d262415-a8a1-3ced-8e54-89c7488e5a8b.jpg@h_104,w_132,q_100",
  "rating": 4,
  "__v": 0,
  "sort": "星巴克"
},{
  "_id": {
    "$oid": "64214bf790e61e9ede7b6b1e"
  },
  "title": "星巴克(apm店)",
  "point": {
    "lat": 39.921025,
    "lng": 116.418528
  },
  "address": "北京市东城区王府井大街138号apmB1",
  "province": "北京市",
  "city": "北京市",
  "phoneNumber": "(010)65255710",
  "image": "https://poi-pic.cdn.bcebos.com/swd/5d262415-a8a1-3ced-8e54-89c7488e5a8b.jpg@h_104,w_132,q_100",
  "rating": 4,
  "__v": 0,
  "sort": "星巴克"
},{
  "_id": {
    "$oid": "64214bf790e61e9ede7b6b1f"
  },
  "title": "星巴克(北京万达广场2店)",
  "point": {
    "lat": 39.914812,
    "lng": 116.477343
  },
  "address": "北京市朝阳区建国路93号院-9号万达广场(北京CBD店)F3",
  "province": "北京市",
  "city": "北京市",
  "phoneNumber": "(010)52205442",
  "image": "https://poi-pic.cdn.bcebos.com/swd/5d262415-a8a1-3ced-8e54-89c7488e5a8b.jpg@h_104,w_132,q_100",
  "rating": 4,
  "__v": 0,
  "sort": "星巴克"
},{
  "_id": {
    "$oid": "64214bf790e61e9ede7b6b20"
  },
  "title": "星巴克臻选(CBD泰康店)",
  "point": {
    "lat": 39.917207,
    "lng": 116.474594
  },
  "address": "北京市朝阳区景辉街16号院1号楼泰康集团大厦一层101、102室",
  "province": "北京市",
  "city": "北京市",
  "phoneNumber": "(010)65008519",
  "image": "https://poi-pic.cdn.bcebos.com/swd/5d262415-a8a1-3ced-8e54-89c7488e5a8b.jpg@h_104,w_132,q_100",
  "rating": 3,
  "__v": 0,
  "sort": "星巴克"
},{
  "_id": {
    "$oid": "64214bf790e61e9ede7b6b21"
  },
  "title": "星巴克(中关村1号店)",
  "point": {
    "lat": 40.081885,
    "lng": 116.254426
  },
  "address": "北京市海淀区北清路81号院三区2号楼1层104室",
  "province": "北京市",
  "city": "北京市",
  "phoneNumber": "(010)62456387",
  "image": "https://poi-pic.cdn.bcebos.com/swd/5d262415-a8a1-3ced-8e54-89c7488e5a8b.jpg@h_104,w_132,q_100",
  "rating": 4,
  "__v": 0,
  "sort": "星巴克"
},{
  "_id": {
    "$oid": "64214bf790e61e9ede7b6b22"
  },
  "title": "星巴克(国际大厦店)",
  "point": {
    "lat": 39.959132,
    "lng": 116.331697
  },
  "address": "北京市海淀区中关村南大街甲18号院C座第一层01-101单元",
  "province": "北京市",
  "city": "北京市",
  "phoneNumber": "(010)62163669",
  "image": "https://poi-pic.cdn.bcebos.com/swd/5d262415-a8a1-3ced-8e54-89c7488e5a8b.jpg@h_104,w_132,q_100",
  "rating": 4,
  "__v": 0,
  "sort": "星巴克"
},{
  "_id": {
    "$oid": "64214bf790e61e9ede7b6b23"
  },
  "title": "星巴克(北辰东路2店)",
  "point": {
    "lat": 39.997044,
    "lng": 116.412832
  },
  "address": "朝阳区北辰东路8号16号楼一层101单元",
  "province": "北京市",
  "city": "北京市",
  "phoneNumber": "(010)84978072",
  "image": "https://poi-pic.cdn.bcebos.com/swd/5d262415-a8a1-3ced-8e54-89c7488e5a8b.jpg@h_104,w_132,q_100",
  "rating": 3,
  "__v": 0,
  "sort": "星巴克"
},{
  "_id": {
    "$oid": "64214bf790e61e9ede7b6b24"
  },
  "title": "星巴克(奥村店)",
  "point": {
    "lat": 40.01542,
    "lng": 116.387841
  },
  "address": "北京市朝阳区林萃东路2号2号院甲3号楼1层f106",
  "province": "北京市",
  "city": "北京市",
  "phoneNumber": "(010)84377378",
  "image": "https://poi-pic.cdn.bcebos.com/swd/5d262415-a8a1-3ced-8e54-89c7488e5a8b.jpg@h_104,w_132,q_100",
  "rating": 4,
  "__v": 0,
  "sort": "星巴克"
},{
  "_id": {
    "$oid": "64214bf790e61e9ede7b6b25"
  },
  "title": "星巴克(雍和大厦店)",
  "point": {
    "lat": 39.9545,
    "lng": 116.427301
  },
  "address": "北京市东城区安定门东大街28号雍和大厦C座西侧一层",
  "province": "北京市",
  "city": "北京市",
  "phoneNumber": "(010)64011035",
  "image": "https://poi-pic.cdn.bcebos.com/swd/5d262415-a8a1-3ced-8e54-89c7488e5a8b.jpg@h_104,w_132,q_100",
  "rating": 4,
  "__v": 0,
  "sort": "星巴克"
},{
  "_id": {
    "$oid": "64214bf790e61e9ede7b6b26"
  },
  "title": "星巴克(龙德广场店)",
  "point": {
    "lat": 40.065508,
    "lng": 116.422091
  },
  "address": "北京市昌平区立汤路186号龙德广场F2",
  "province": "北京市",
  "city": "北京市",
  "phoneNumber": "(010)84360768",
  "image": "https://poi-pic.cdn.bcebos.com/swd/5d262415-a8a1-3ced-8e54-89c7488e5a8b.jpg@h_104,w_132,q_100",
  "rating": 4,
  "__v": 0,
  "sort": "星巴克"
},{
  "_id": {
    "$oid": "64214bf790e61e9ede7b6b27"
  },
  "title": "星巴克(阜通东大街店)",
  "point": {
    "lat": 39.995236,
    "lng": 116.487509
  },
  "address": "北京市朝阳区阜通东大街6号院3号楼1层1-101单元",
  "province": "北京市",
  "city": "北京市",
  "phoneNumber": "(010)84785712",
  "image": "https://poi-pic.cdn.bcebos.com/swd/5d262415-a8a1-3ced-8e54-89c7488e5a8b.jpg@h_104,w_132,q_100",
  "rating": 4,
  "__v": 0,
  "sort": "星巴克"
},{
  "_id": {
    "$oid": "64214bf790e61e9ede7b6b28"
  },
  "title": "星巴克(丰科中心店)",
  "point": {
    "lat": 39.835184,
    "lng": 116.310113
  },
  "address": "北京市丰台区馆东路汽车博物馆2号楼103单元",
  "province": "北京市",
  "city": "北京市",
  "phoneNumber": "(010)56533272",
  "image": "https://poi-pic.cdn.bcebos.com/swd/5d262415-a8a1-3ced-8e54-89c7488e5a8b.jpg@h_104,w_132,q_100",
  "rating": 3,
  "__v": 0,
  "sort": "星巴克"
},{
  "_id": {
    "$oid": "64214bf790e61e9ede7b6b29"
  },
  "title": "星巴克(哈噜玛特店)",
  "point": {
    "lat": 39.956096,
    "lng": 116.473597
  },
  "address": "北京市朝阳区亮马桥路48号院3号楼1-24层101号一层1001",
  "province": "北京市",
  "city": "北京市",
  "phoneNumber": "(010)87095936",
  "image": "https://poi-pic.cdn.bcebos.com/swd/5d262415-a8a1-3ced-8e54-89c7488e5a8b.jpg@h_104,w_132,q_100",
  "rating": 3,
  "__v": 0,
  "sort": "星巴克"
},{
  "_id": {
    "$oid": "64214c0390e61e9ede7b6b2b"
  },
  "title": "星巴克(国锐金顶店)",
  "point": {
    "lat": 39.797646,
    "lng": 116.515576
  },
  "address": "北京市大兴区荣华南路1号A座101号",
  "province": "北京市",
  "city": "北京市",
  "phoneNumber": "(010)52205441",
  "image": "https://poi-pic.cdn.bcebos.com/swd/5d262415-a8a1-3ced-8e54-89c7488e5a8b.jpg@h_104,w_132,q_100",
  "rating": 3,
  "__v": 0,
  "sort": "星巴克"
},{
  "_id": {
    "$oid": "64214c0390e61e9ede7b6b2c"
  },
  "title": "星巴克(通厦公元99店)",
  "point": {
    "lat": 40.052895,
    "lng": 116.343894
  },
  "address": "北京市海淀区悦秀路99号通厦公元991层1单元101-053号",
  "province": "北京市",
  "city": "北京市",
  "image": "https://poi-pic.cdn.bcebos.com/swd/5d262415-a8a1-3ced-8e54-89c7488e5a8b.jpg@h_104,w_132,q_100",
  "rating": 4,
  "__v": 0,
  "sort": "星巴克"
},{
  "_id": {
    "$oid": "64214c0390e61e9ede7b6b2d"
  },
  "title": "星巴克(国华投资广场店)",
  "point": {
    "lat": 39.945203,
    "lng": 116.438783
  },
  "address": "北京市东城区东直门南大街1号北京来福士中心F2",
  "province": "北京市",
  "city": "北京市",
  "phoneNumber": "(010)58199913",
  "image": "https://poi-pic.cdn.bcebos.com/swd/5d262415-a8a1-3ced-8e54-89c7488e5a8b.jpg@h_104,w_132,q_100",
  "rating": 3,
  "__v": 0,
  "sort": "星巴克"
},{
  "_id": {
    "$oid": "64214c0390e61e9ede7b6b2e"
  },
  "title": "星巴克(融科资讯店)",
  "point": {
    "lat": 39.990391,
    "lng": 116.332803
  },
  "address": "北京市海淀区科学院南路融科资讯中心B座1层019号",
  "province": "北京市",
  "city": "北京市",
  "phoneNumber": "(010)82861286",
  "image": "https://poi-pic.cdn.bcebos.com/swd/5d262415-a8a1-3ced-8e54-89c7488e5a8b.jpg@h_104,w_132,q_100",
  "rating": 4,
  "__v": 0,
  "sort": "星巴克"
},{
  "_id": {
    "$oid": "64214c1e90e61e9ede7b6b30"
  },
  "title": "星巴克(五大道店)",
  "point": {
    "lat": 39.120926,
    "lng": 117.210825
  },
  "address": "天津市和平区洛阳道61-73号69.71.73号楼一层",
  "province": "天津市",
  "city": "天津市",
  "phoneNumber": "(022)58352890",
  "image": "https://poi-pic.cdn.bcebos.com/swd/5d262415-a8a1-3ced-8e54-89c7488e5a8b.jpg@h_104,w_132,q_100",
  "rating": 4,
  "__v": 0,
  "sort": "星巴克"
},{
  "_id": {
    "$oid": "64214c1e90e61e9ede7b6b31"
  },
  "title": "星巴克(正融科技大厦店)",
  "point": {
    "lat": 39.181448,
    "lng": 117.148614
  },
  "address": "天津市红桥区保康中道与咸阳北路交口西北侧正融科技大厦一层",
  "province": "天津市",
  "city": "天津市",
  "phoneNumber": "(022)87748536",
  "image": "https://poi-pic.cdn.bcebos.com/swd/5d262415-a8a1-3ced-8e54-89c7488e5a8b.jpg@h_104,w_132,q_100",
  "rating": 4,
  "__v": 0,
  "sort": "星巴克"
},{
  "_id": {
    "$oid": "64214c1e90e61e9ede7b6b32"
  },
  "title": "星巴克(佛罗伦萨小镇店)",
  "point": {
    "lat": 39.38189,
    "lng": 117.023767
  },
  "address": "天津市武清区前进道北侧(距京津城际铁路武清站前100米)佛罗伦萨小镇F1",
  "province": "天津市",
  "city": "天津市",
  "phoneNumber": "(022)59674981",
  "image": "https://poi-pic.cdn.bcebos.com/swd/5d262415-a8a1-3ced-8e54-89c7488e5a8b.jpg@h_104,w_132,q_100",
  "rating": 4,
  "__v": 0,
  "sort": "星巴克"
},{
  "_id": {
    "$oid": "64214c1e90e61e9ede7b6b33"
  },
  "title": "星巴克(恒隆广场店)",
  "point": {
    "lat": 39.134193,
    "lng": 117.204631
  },
  "address": "天津市和平区兴安路166号恒隆广场F2层2010铺位",
  "province": "天津市",
  "city": "天津市",
  "phoneNumber": "(022)23459104",
  "image": "https://poi-pic.cdn.bcebos.com/swd/5d262415-a8a1-3ced-8e54-89c7488e5a8b.jpg@h_104,w_132,q_100",
  "rating": 4,
  "__v": 0,
  "sort": "星巴克"
},{
  "_id": {
    "$oid": "64214c1e90e61e9ede7b6b34"
  },
  "title": "星巴克(华苑智慧山店)",
  "point": {
    "lat": 39.100043,
    "lng": 117.128632
  },
  "address": "天津市西青区工华道2号",
  "province": "天津市",
  "city": "天津市",
  "phoneNumber": "(022)58283006",
  "image": "https://poi-pic.cdn.bcebos.com/swd/5d262415-a8a1-3ced-8e54-89c7488e5a8b.jpg@h_104,w_132,q_100",
  "rating": 4,
  "__v": 0,
  "sort": "星巴克"
},{
  "_id": {
    "$oid": "64214c1e90e61e9ede7b6b35"
  },
  "title": "星巴克(王府井奥莱·新燕莎小镇店)",
  "point": {
    "lat": 39.167203,
    "lng": 117.403261
  },
  "address": "天津市东丽区环河北路98号王府井奥莱·新燕莎小镇F1",
  "province": "天津市",
  "city": "天津市",
  "phoneNumber": "(022)59901701",
  "image": "https://poi-pic.cdn.bcebos.com/swd/5d262415-a8a1-3ced-8e54-89c7488e5a8b.jpg@h_104,w_132,q_100",
  "rating": 4,
  "__v": 0,
  "sort": "星巴克"
},{
  "_id": {
    "$oid": "64214c1e90e61e9ede7b6b36"
  },
  "title": "星巴克(新意街2店)",
  "point": {
    "lat": 39.140038,
    "lng": 117.207355
  },
  "address": "天津市河北区自由道22号",
  "province": "天津市",
  "city": "天津市",
  "phoneNumber": "(022)26116681",
  "image": "https://poi-pic.cdn.bcebos.com/swd/5d262415-a8a1-3ced-8e54-89c7488e5a8b.jpg@h_104,w_132,q_100",
  "rating": 4,
  "__v": 0,
  "sort": "星巴克"
},{
  "_id": {
    "$oid": "64214c1e90e61e9ede7b6b37"
  },
  "title": "星巴克(滨海国际机场1店)",
  "point": {
    "lat": 39.136879,
    "lng": 117.370334
  },
  "address": "天津市东丽区滨海国际机场T2航站楼二层",
  "province": "天津市",
  "city": "天津市",
  "phoneNumber": "(022)24907064",
  "image": "https://poi-pic.cdn.bcebos.com/swd/5d262415-a8a1-3ced-8e54-89c7488e5a8b.jpg@h_104,w_132,q_100",
  "rating": 4,
  "__v": 0,
  "sort": "星巴克"
},{
  "_id": {
    "$oid": "64214c1e90e61e9ede7b6b38"
  },
  "title": "星巴克(赛顿中心店)",
  "point": {
    "lat": 39.113065,
    "lng": 117.198596
  },
  "address": "天津市和平区岳阳道83、85、87号，西康路37号-102-1单元",
  "province": "天津市",
  "city": "天津市",
  "phoneNumber": "(022)23591671",
  "image": "https://poi-pic.cdn.bcebos.com/swd/5d262415-a8a1-3ced-8e54-89c7488e5a8b.jpg@h_104,w_132,q_100",
  "rating": 4,
  "__v": 0,
  "sort": "星巴克"
},{
  "_id": {
    "$oid": "64214c1e90e61e9ede7b6b39"
  },
  "title": "星巴克(金谷大厦店)",
  "point": {
    "lat": 39.137518,
    "lng": 117.215721
  },
  "address": "天津市和平区解放北路与哈尔滨道交口东北侧金之谷大厦1-107单元",
  "province": "天津市",
  "city": "天津市",
  "phoneNumber": "(022)59068500",
  "image": "https://poi-pic.cdn.bcebos.com/swd/5d262415-a8a1-3ced-8e54-89c7488e5a8b.jpg@h_104,w_132,q_100",
  "rating": 4,
  "__v": 0,
  "sort": "星巴克"
},{
  "_id": {
    "$oid": "64214c1e90e61e9ede7b6b3a"
  },
  "title": "星巴克(大港友谊百货店)",
  "point": {
    "lat": 38.844501,
    "lng": 117.46102
  },
  "address": "天津市滨海新区大港胜利街651号一商友谊大港店一层A101",
  "province": "天津市",
  "city": "天津市",
  "phoneNumber": "(022)63207933",
  "image": "https://poi-pic.cdn.bcebos.com/swd/5d262415-a8a1-3ced-8e54-89c7488e5a8b.jpg@h_104,w_132,q_100",
  "rating": 3,
  "__v": 0,
  "sort": "星巴克"
},{
  "_id": {
    "$oid": "64214c1e90e61e9ede7b6b3b"
  },
  "title": "星巴克(鲁能城购物中心店)",
  "point": {
    "lat": 39.101023,
    "lng": 117.183187
  },
  "address": "天津市南开区水上公园北道与水上公园东路交叉口东南角鲁能城购物中心F1",
  "province": "天津市",
  "city": "天津市",
  "phoneNumber": "(022)23522028",
  "image": "https://poi-pic.cdn.bcebos.com/swd/5d262415-a8a1-3ced-8e54-89c7488e5a8b.jpg@h_104,w_132,q_100",
  "rating": 4,
  "__v": 0,
  "sort": "星巴克"
},{
  "_id": {
    "$oid": "64214c1e90e61e9ede7b6b3c"
  },
  "title": "星巴克(万兆新文化花园店)",
  "point": {
    "lat": 39.135178,
    "lng": 117.190961
  },
  "address": "天津市和平区南市街福安大街新文化花园新丽居102号",
  "province": "天津市",
  "city": "天津市",
  "phoneNumber": "(022)23455866",
  "image": "https://poi-pic.cdn.bcebos.com/swd/5d262415-a8a1-3ced-8e54-89c7488e5a8b.jpg@h_104,w_132,q_100",
  "rating": 4,
  "__v": 0,
  "sort": "星巴克"
},{
  "_id": {
    "$oid": "64214c1e90e61e9ede7b6b3d"
  },
  "title": "星巴克(五大院店)",
  "point": {
    "lat": 39.125192,
    "lng": 117.219916
  },
  "address": "天津市和平区泰安道18号增1号三号院一号楼C1-2铺位首层及二层",
  "province": "天津市",
  "city": "天津市",
  "phoneNumber": "(022)58325705",
  "image": "https://poi-pic.cdn.bcebos.com/swd/5d262415-a8a1-3ced-8e54-89c7488e5a8b.jpg@h_104,w_132,q_100",
  "rating": 4,
  "__v": 0,
  "sort": "星巴克"
},{
  "_id": {
    "$oid": "64214c1e90e61e9ede7b6b3e"
  },
  "title": "星巴克(宝风大厦店)",
  "point": {
    "lat": 39.002907,
    "lng": 117.686741
  },
  "address": "天津市滨海新区新华路3678号新金融大厦1层1F-06,1F-07,1F-07-1号铺位",
  "province": "天津市",
  "city": "天津市",
  "phoneNumber": "(022)66863085",
  "image": "https://poi-pic.cdn.bcebos.com/swd/5d262415-a8a1-3ced-8e54-89c7488e5a8b.jpg@h_104,w_132,q_100",
  "rating": 4,
  "__v": 0,
  "sort": "星巴克"
},{
  "_id": {
    "$oid": "64214c1e90e61e9ede7b6b3f"
  },
  "title": "星巴克(天津有巢公馆店)",
  "point": {
    "lat": 39.157933,
    "lng": 117.201179
  },
  "address": "天津市河北区中山路288号290号",
  "province": "天津市",
  "city": "天津市",
  "phoneNumber": "(022)58300727",
  "image": "https://poi-pic.cdn.bcebos.com/swd/5d262415-a8a1-3ced-8e54-89c7488e5a8b.jpg@h_104,w_132,q_100",
  "rating": 4,
  "__v": 0,
  "sort": "星巴克"
},{
  "_id": {
    "$oid": "64214c1e90e61e9ede7b6b40"
  },
  "title": "星巴克(梅江凤水园店)",
  "point": {
    "lat": 39.069474,
    "lng": 117.222661
  },
  "address": "天津市河西区友谊南路与珠江道交口西南侧风水园2-25单元",
  "province": "天津市",
  "city": "天津市",
  "phoneNumber": "(022)88389107",
  "image": "https://poi-pic.cdn.bcebos.com/swd/5d262415-a8a1-3ced-8e54-89c7488e5a8b.jpg@h_104,w_132,q_100",
  "rating": 4,
  "__v": 0,
  "sort": "星巴克"
},{
  "_id": {
    "$oid": "64214c1e90e61e9ede7b6b41"
  },
  "title": "星巴克(长江道宝利国际店)",
  "point": {
    "lat": 39.132007,
    "lng": 117.17353
  },
  "address": "天津市南开区长江道14号地上一层05号铺位",
  "province": "天津市",
  "city": "天津市",
  "phoneNumber": "(022)87391806",
  "image": "https://poi-pic.cdn.bcebos.com/swd/5d262415-a8a1-3ced-8e54-89c7488e5a8b.jpg@h_104,w_132,q_100",
  "rating": 4,
  "__v": 0,
  "sort": "星巴克"
},{
  "_id": {
    "$oid": "64214c1e90e61e9ede7b6b42"
  },
  "title": "星巴克(新开路远洋新天地店)",
  "point": {
    "lat": 39.145703,
    "lng": 117.225841
  },
  "address": "天津市河东区新开路67号101、102单元",
  "province": "天津市",
  "city": "天津市",
  "phoneNumber": "(022)60868872",
  "image": "https://poi-pic.cdn.bcebos.com/swd/5d262415-a8a1-3ced-8e54-89c7488e5a8b.jpg@h_104,w_132,q_100",
  "rating": 4,
  "__v": 0,
  "sort": "星巴克"
},{
  "_id": {
    "$oid": "64214c1e90e61e9ede7b6b43"
  },
  "title": "星巴克(友谊新都百货店)",
  "point": {
    "lat": 39.153438,
    "lng": 117.205998
  },
  "address": "天津市河北区狮子林大街200号地上一层200单元",
  "province": "天津市",
  "city": "天津市",
  "phoneNumber": "(022)60861686",
  "image": "https://poi-pic.cdn.bcebos.com/swd/5d262415-a8a1-3ced-8e54-89c7488e5a8b.jpg@h_104,w_132,q_100",
  "rating": 4,
  "__v": 0,
  "sort": "星巴克"
},{
  "_id": {
    "$oid": "64214c2790e61e9ede7b6b45"
  },
  "title": "星巴克(会展中心店)",
  "point": {
    "lat": 39.042444,
    "lng": 117.22032
  },
  "address": "天津市西青区汇川路221号梅江会展2期首层a02号",
  "province": "天津市",
  "city": "天津市",
  "phoneNumber": "(022)58181491",
  "image": "https://poi-pic.cdn.bcebos.com/swd/5d262415-a8a1-3ced-8e54-89c7488e5a8b.jpg@h_104,w_132,q_100",
  "rating": 3,
  "__v": 0,
  "sort": "星巴克"
},{
  "_id": {
    "$oid": "64214c2790e61e9ede7b6b46"
  },
  "title": "星巴克(天津嘉利大厦店)",
  "point": {
    "lat": 39.124582,
    "lng": 117.187062
  },
  "address": "天津市和平区卫津路北端嘉利大厦1-102-A01",
  "province": "天津市",
  "city": "天津市",
  "phoneNumber": "(022)23229051",
  "image": "https://poi-pic.cdn.bcebos.com/swd/5d262415-a8a1-3ced-8e54-89c7488e5a8b.jpg@h_104,w_132,q_100",
  "rating": 4,
  "__v": 0,
  "sort": "星巴克"
},{
  "_id": {
    "$oid": "64214c2790e61e9ede7b6b47"
  },
  "title": "星巴克(伊势丹滨海店)",
  "point": {
    "lat": 39.029834,
    "lng": 117.714521
  },
  "address": "天津开发区第二大街62号伊势丹B1层T08单元",
  "province": "天津市",
  "city": "天津市",
  "phoneNumber": "(022)25297018",
  "image": "https://poi-pic.cdn.bcebos.com/swd/5d262415-a8a1-3ced-8e54-89c7488e5a8b.jpg@h_104,w_132,q_100",
  "rating": 4,
  "__v": 0,
  "sort": "星巴克"
},{
  "_id": {
    "$oid": "64214c2790e61e9ede7b6b48"
  },
  "title": "星巴克(大岛商业广场店)",
  "point": {
    "lat": 39.049349,
    "lng": 117.225647
  },
  "address": "天津市河西区环岛西路11号大岛商业广场F1",
  "province": "天津市",
  "city": "天津市",
  "phoneNumber": "(022)58898863",
  "image": "https://poi-pic.cdn.bcebos.com/swd/5d262415-a8a1-3ced-8e54-89c7488e5a8b.jpg@h_104,w_132,q_100",
  "rating": 4,
  "__v": 0,
  "sort": "星巴克"
},{
  "_id": {
    "$oid": "64214c2790e61e9ede7b6b49"
  },
  "title": "星巴克(万福生活广场店)",
  "point": {
    "lat": 39.185546,
    "lng": 117.214658
  },
  "address": "天津市河北区迎贤道96号万福生活广场北宁湾F1",
  "province": "天津市",
  "city": "天津市",
  "phoneNumber": "(022)59907715",
  "image": "https://poi-pic.cdn.bcebos.com/swd/5d262415-a8a1-3ced-8e54-89c7488e5a8b.jpg@h_104,w_132,q_100",
  "rating": 4,
  "__v": 0,
  "sort": "星巴克"
},{
  "_id": {
    "$oid": "64214c2790e61e9ede7b6b4a"
  },
  "title": "星巴克(金元宝于家堡购物中心店)",
  "point": {
    "lat": 39.010657,
    "lng": 117.705529
  },
  "address": "天津市滨海新区新港路276号金元宝于家堡购物中心F1",
  "province": "天津市",
  "city": "天津市",
  "phoneNumber": "(022)65257896",
  "image": "https://poi-pic.cdn.bcebos.com/swd/5d262415-a8a1-3ced-8e54-89c7488e5a8b.jpg@h_104,w_132,q_100",
  "rating": 4,
  "__v": 0,
  "sort": "星巴克"
},{
  "_id": {
    "$oid": "64214c2790e61e9ede7b6b4b"
  },
  "title": "星巴克(金座广场店)",
  "point": {
    "lat": 39.099637,
    "lng": 117.133828
  },
  "address": "天津市西青区梅苑路5号",
  "province": "天津市",
  "city": "天津市",
  "phoneNumber": "(022)23868530",
  "image": "https://poi-pic.cdn.bcebos.com/swd/5d262415-a8a1-3ced-8e54-89c7488e5a8b.jpg@h_104,w_132,q_100",
  "rating": 4,
  "__v": 0,
  "sort": "星巴克"
},{
  "_id": {
    "$oid": "64214c2790e61e9ede7b6b4c"
  },
  "title": "星巴克(奥城商业广场店)",
  "point": {
    "lat": 39.083866,
    "lng": 117.175234
  },
  "address": "天津市南开区宾水西道奥城商业广场19单元",
  "province": "天津市",
  "city": "天津市",
  "phoneNumber": "(022)58109030",
  "image": "https://poi-pic.cdn.bcebos.com/swd/5d262415-a8a1-3ced-8e54-89c7488e5a8b.jpg@h_104,w_132,q_100",
  "rating": 4,
  "__v": 0,
  "sort": "星巴克"
},{
  "_id": {
    "$oid": "64214c2790e61e9ede7b6b4d"
  },
  "title": "星巴克(华夏未来店)",
  "point": {
    "lat": 39.089837,
    "lng": 117.190757
  },
  "address": "天津河西区环湖中道3号01幢一层103单元",
  "province": "天津市",
  "city": "天津市",
  "phoneNumber": "(022)23108270",
  "image": "https://poi-pic.cdn.bcebos.com/swd/5d262415-a8a1-3ced-8e54-89c7488e5a8b.jpg@h_104,w_132,q_100",
  "rating": 3,
  "__v": 0,
  "sort": "星巴克"
},{
  "_id": {
    "$oid": "64214c2790e61e9ede7b6b4e"
  },
  "title": "星巴克(中豪世纪花园店)",
  "point": {
    "lat": 39.101082,
    "lng": 117.224147
  },
  "address": "天津市河西区围堤道120增1号",
  "province": "天津市",
  "city": "天津市",
  "phoneNumber": "(022)28327275",
  "image": "https://poi-pic.cdn.bcebos.com/swd/5d262415-a8a1-3ced-8e54-89c7488e5a8b.jpg@h_104,w_132,q_100",
  "rating": 4,
  "__v": 0,
  "sort": "星巴克"
},{
  "_id": {
    "$oid": "64214c2790e61e9ede7b6b4f"
  },
  "title": "星巴克(陆家嘴中心天津店)",
  "point": {
    "lat": 39.153655,
    "lng": 117.177957
  },
  "address": "天津市红桥区大丰路25-29号(单号)陆家嘴中心地下一层的B112单元",
  "province": "天津市",
  "city": "天津市",
  "phoneNumber": "(022)27280970,(022)58337030",
  "image": "https://poi-pic.cdn.bcebos.com/swd/5d262415-a8a1-3ced-8e54-89c7488e5a8b.jpg@h_104,w_132,q_100",
  "rating": 4,
  "__v": 0,
  "sort": "星巴克"
},{
  "_id": {
    "$oid": "64214c2790e61e9ede7b6b50"
  },
  "title": "星巴克(天津理工大学店)",
  "point": {
    "lat": 39.067993,
    "lng": 117.152136
  },
  "address": "天津市西青区宾水西道391号天津理工大学荟贤宾馆的地上一层的101单元",
  "province": "天津市",
  "city": "天津市",
  "phoneNumber": "18502644388",
  "image": "https://poi-pic.cdn.bcebos.com/swd/5d262415-a8a1-3ced-8e54-89c7488e5a8b.jpg@h_104,w_132,q_100",
  "rating": 3,
  "__v": 0,
  "sort": "星巴克"
},{
  "_id": {
    "$oid": "64214c2790e61e9ede7b6b51"
  },
  "title": "星巴克(乐宾百货店)",
  "point": {
    "lat": 39.125655,
    "lng": 117.201018
  },
  "address": "南京路128号乐宾百货F1",
  "province": "天津市",
  "city": "天津市",
  "phoneNumber": "(022)27168010",
  "image": "https://poi-pic.cdn.bcebos.com/swd/5d262415-a8a1-3ced-8e54-89c7488e5a8b.jpg@h_104,w_132,q_100",
  "rating": 4,
  "__v": 0,
  "sort": "星巴克"
},{
  "_id": {
    "$oid": "64214c2790e61e9ede7b6b52"
  },
  "title": "星巴克(天津峰汇广场店)",
  "point": {
    "lat": 39.103387,
    "lng": 117.21379
  },
  "address": "天津市河西区黄埔南路与围堤道交口西南侧峰汇广场1,2,3号楼裙房一层3号",
  "province": "天津市",
  "city": "天津市",
  "phoneNumber": "(022)28375155",
  "image": "https://poi-pic.cdn.bcebos.com/swd/5d262415-a8a1-3ced-8e54-89c7488e5a8b.jpg@h_104,w_132,q_100",
  "rating": 4,
  "__v": 0,
  "sort": "星巴克"
},{
  "_id": {
    "$oid": "64214c2790e61e9ede7b6b53"
  },
  "title": "星巴克(天津仁恒置地广场二店)",
  "point": {
    "lat": 39.144522,
    "lng": 117.197348
  },
  "address": "天津市南开区东马路135号仁恒海河广场一层1-10室",
  "province": "天津市",
  "city": "天津市",
  "phoneNumber": "(022)58950821",
  "image": "https://poi-pic.cdn.bcebos.com/swd/5d262415-a8a1-3ced-8e54-89c7488e5a8b.jpg@h_104,w_132,q_100",
  "rating": 4,
  "__v": 0,
  "sort": "星巴克"
},{
  "_id": {
    "$oid": "64214c2790e61e9ede7b6b54"
  },
  "title": "星巴克(世纪都会商厦店)",
  "point": {
    "lat": 39.123214,
    "lng": 117.206633
  },
  "address": "天津市和平区五大道街道尚友里社区南京路181号世纪都会商厦F1",
  "province": "天津市",
  "city": "天津市",
  "phoneNumber": "(022)23123390",
  "image": "https://poi-pic.cdn.bcebos.com/swd/5d262415-a8a1-3ced-8e54-89c7488e5a8b.jpg@h_104,w_132,q_100",
  "rating": 4,
  "__v": 0,
  "sort": "星巴克"
},{
  "_id": {
    "$oid": "64214c2790e61e9ede7b6b55"
  },
  "title": "星巴克(天津荣佳大厦店)",
  "point": {
    "lat": 39.146747,
    "lng": 117.193588
  },
  "address": "天津市南开区城厢东路与东门内大街交口荣佳大厦一层底商1门增1号单元",
  "province": "天津市",
  "city": "天津市",
  "phoneNumber": "(022)27277057",
  "image": "https://poi-pic.cdn.bcebos.com/swd/5d262415-a8a1-3ced-8e54-89c7488e5a8b.jpg@h_104,w_132,q_100",
  "rating": 4,
  "__v": 0,
  "sort": "星巴克"
},{
  "_id": {
    "$oid": "64214c2790e61e9ede7b6b56"
  },
  "title": "星巴克(三马路太极园店)",
  "point": {
    "lat": 39.132431,
    "lng": 117.181484
  },
  "address": "天津市南开区太极园底商109、110-1",
  "province": "天津市",
  "city": "天津市",
  "phoneNumber": "17695536515",
  "image": "https://poi-pic.cdn.bcebos.com/swd/5d262415-a8a1-3ced-8e54-89c7488e5a8b.jpg@h_104,w_132,q_100",
  "rating": 4,
  "__v": 0,
  "sort": "星巴克"
},{
  "_id": {
    "$oid": "64214c2790e61e9ede7b6b57"
  },
  "title": "星巴克(天津图书大厦店)",
  "point": {
    "lat": 39.117233,
    "lng": 117.226827
  },
  "address": "天津市河西区苏州道2号图书大厦一层02号商铺",
  "province": "天津市",
  "city": "天津市",
  "phoneNumber": "(022)83860051",
  "image": "https://poi-pic.cdn.bcebos.com/swd/5d262415-a8a1-3ced-8e54-89c7488e5a8b.jpg@h_104,w_132,q_100",
  "rating": 3,
  "__v": 0,
  "sort": "星巴克"
},{
  "_id": {
    "$oid": "64214c2790e61e9ede7b6b58"
  },
  "title": "星巴克(大光明店)",
  "point": {
    "lat": 39.393353,
    "lng": 117.066477
  },
  "address": "天津市武清区杨村街路西侧新光广场地上一层1-51~52号",
  "province": "天津市",
  "city": "天津市",
  "phoneNumber": "(022)60827251",
  "image": "https://poi-pic.cdn.bcebos.com/swd/5d262415-a8a1-3ced-8e54-89c7488e5a8b.jpg@h_104,w_132,q_100",
  "rating": 3,
  "__v": 0,
  "sort": "星巴克"
},{
  "_id": {
    "$oid": "64214c2a90e61e9ede7b6b5a"
  },
  "title": "星巴克(宝龙广场新港路店)",
  "point": {
    "lat": 39.013244,
    "lng": 117.686715
  },
  "address": "天津市滨海新区中心商务区新港路1813号宝龙广场F1",
  "province": "天津市",
  "city": "天津市",
  "phoneNumber": "18911286553",
  "image": "https://poi-pic.cdn.bcebos.com/swd/5d262415-a8a1-3ced-8e54-89c7488e5a8b.jpg@h_104,w_132,q_100",
  "rating": 4,
  "__v": 0,
  "sort": "星巴克"
},{
  "_id": {
    "$oid": "64214c2a90e61e9ede7b6b5b"
  },
  "title": "星巴克(滨海MSD店)",
  "point": {
    "lat": 39.028628,
    "lng": 117.713937
  },
  "address": "天津市滨海新区第一大街79号泰达MSD一层C1-105号",
  "province": "天津市",
  "city": "天津市",
  "phoneNumber": "(022)25322788",
  "image": "https://poi-pic.cdn.bcebos.com/swd/5d262415-a8a1-3ced-8e54-89c7488e5a8b.jpg@h_104,w_132,q_100",
  "rating": 3,
  "__v": 0,
  "sort": "星巴克"
},{
  "_id": {
    "$oid": "64214c2a90e61e9ede7b6b5c"
  },
  "title": "星巴克(朗香街店)",
  "point": {
    "lat": 39.121209,
    "lng": 117.222297
  },
  "address": "天津市和平区建设路88号朗香街B2层M002-1单元",
  "province": "天津市",
  "city": "天津市",
  "phoneNumber": "(022)23158835",
  "image": "https://poi-pic.cdn.bcebos.com/swd/5d262415-a8a1-3ced-8e54-89c7488e5a8b.jpg@h_104,w_132,q_100",
  "rating": 4,
  "__v": 0,
  "sort": "星巴克"
},{
  "_id": {
    "$oid": "64214c2a90e61e9ede7b6b5d"
  },
  "title": "星巴克(友谊精品广场店)",
  "point": {
    "lat": 39.124282,
    "lng": 117.221882
  },
  "address": "天津市和平区曲阜道38号友谊精品广场F1",
  "province": "天津市",
  "city": "天津市",
  "phoneNumber": "(022)23120378",
  "image": "https://poi-pic.cdn.bcebos.com/swd/5d262415-a8a1-3ced-8e54-89c7488e5a8b.jpg@h_104,w_132,q_100",
  "rating": 3,
  "__v": 0,
  "sort": "星巴克"
},{
  "_id": {
    "$oid": "64214c2a90e61e9ede7b6b5e"
  },
  "title": "星巴克(万达广场武清店)",
  "point": {
    "lat": 39.411257,
    "lng": 117.065815
  },
  "address": "天津市武清区福源道与泉旺路交汇处西北侧万达广场F1",
  "province": "天津市",
  "city": "天津市",
  "phoneNumber": "(022)82101679,4008206998",
  "image": "https://poi-pic.cdn.bcebos.com/swd/5d262415-a8a1-3ced-8e54-89c7488e5a8b.jpg@h_104,w_132,q_100",
  "rating": 3,
  "__v": 0,
  "sort": "星巴克"
},{
  "_id": {
    "$oid": "64214c2a90e61e9ede7b6b5f"
  },
  "title": "星巴克(合生财富广场店)",
  "point": {
    "lat": 39.13809,
    "lng": 117.200475
  },
  "address": "天津市和平区多伦道15号",
  "province": "天津市",
  "city": "天津市",
  "phoneNumber": "(022)27311759",
  "image": "https://poi-pic.cdn.bcebos.com/swd/5d262415-a8a1-3ced-8e54-89c7488e5a8b.jpg@h_104,w_132,q_100",
  "rating": 0,
  "__v": 0,
  "sort": "星巴克"
},{
  "_id": {
    "$oid": "64214c2a90e61e9ede7b6b60"
  },
  "title": "星巴克(仁恒广场二店)",
  "point": {
    "lat": 39.144254,
    "lng": 117.198985
  },
  "address": "东马路131号",
  "province": "天津市",
  "city": "天津市",
  "phoneNumber": "(022)58950821",
  "image": "https://poi-pic.cdn.bcebos.com/swd/5d262415-a8a1-3ced-8e54-89c7488e5a8b.jpg@h_104,w_132,q_100",
  "__v": 0,
  "sort": "星巴克"
},{
  "_id": {
    "$oid": "64214c2a90e61e9ede7b6b61"
  },
  "title": "星巴克(滨海国际机场3店)",
  "point": {
    "lat": 39.134795,
    "lng": 117.365592
  },
  "address": "天津市东丽区滨海国际机场T1航站楼二层出发大厅国际隔离区CYT1-3号",
  "province": "天津市",
  "city": "天津市",
  "phoneNumber": "(022)24906756",
  "image": "https://poi-pic.cdn.bcebos.com/swd/5d262415-a8a1-3ced-8e54-89c7488e5a8b.jpg@h_104,w_132,q_100",
  "__v": 0,
  "sort": "星巴克"
},{
  "_id": {
    "$oid": "64214c2a90e61e9ede7b6b62"
  },
  "title": "星巴克(滨海国际机场2店)",
  "point": {
    "lat": 39.137582,
    "lng": 117.368575
  },
  "address": "天津市东丽区机场大道1号天津滨海国际机场F1",
  "province": "天津市",
  "city": "天津市",
  "phoneNumber": "(022)28388669",
  "image": "https://poi-pic.cdn.bcebos.com/swd/5d262415-a8a1-3ced-8e54-89c7488e5a8b.jpg@h_104,w_132,q_100",
  "rating": 3,
  "__v": 0,
  "sort": "星巴克"
},{
  "_id": {
    "$oid": "64214c3990e61e9ede7b6b64"
  },
  "title": "星巴克(解放碑商业大厦店)",
  "point": {
    "lat": 29.563138,
    "lng": 106.583769
  },
  "address": "重庆市渝中区邹容路109号商业大厦2层",
  "province": "重庆市",
  "city": "重庆市",
  "image": "https://poi-pic.cdn.bcebos.com/swd/5d262415-a8a1-3ced-8e54-89c7488e5a8b.jpg@h_104,w_132,q_100",
  "rating": 4,
  "__v": 0,
  "sort": "星巴克"
},{
  "_id": {
    "$oid": "64214c3990e61e9ede7b6b65"
  },
  "title": "星巴克(沙磁巷店)",
  "point": {
    "lat": 29.586974,
    "lng": 106.460903
  },
  "address": "重庆市沙坪坝区沙滨路102-112号沙磁巷广场1层",
  "province": "重庆市",
  "city": "重庆市",
  "phoneNumber": "(023)65630617",
  "image": "https://poi-pic.cdn.bcebos.com/swd/5d262415-a8a1-3ced-8e54-89c7488e5a8b.jpg@h_104,w_132,q_100",
  "rating": 4,
  "__v": 0,
  "sort": "星巴克"
},{
  "_id": {
    "$oid": "64214c3990e61e9ede7b6b66"
  },
  "title": "星巴克(荣昌重百店)",
  "point": {
    "lat": 29.420461,
    "lng": 105.612518
  },
  "address": "重庆市荣昌区昌龙大道33号",
  "province": "重庆市",
  "city": "重庆市",
  "phoneNumber": "(023)85268084",
  "image": "https://poi-pic.cdn.bcebos.com/swd/5d262415-a8a1-3ced-8e54-89c7488e5a8b.jpg@h_104,w_132,q_100",
  "rating": 3,
  "__v": 0,
  "sort": "星巴克"
},{
  "_id": {
    "$oid": "64214c3990e61e9ede7b6b67"
  },
  "title": "星巴克(重庆时代广场店)",
  "point": {
    "lat": 29.56467,
    "lng": 106.582796
  },
  "address": "重庆市渝中区邹容路100号重庆时代广场F1",
  "province": "重庆市",
  "city": "重庆市",
  "phoneNumber": "(023)88131529",
  "image": "https://poi-pic.cdn.bcebos.com/swd/5d262415-a8a1-3ced-8e54-89c7488e5a8b.jpg@h_104,w_132,q_100",
  "rating": 4,
  "__v": 0,
  "sort": "星巴克"
},{
  "_id": {
    "$oid": "64214c3990e61e9ede7b6b68"
  },
  "title": "星巴克(石桥铺赛博广场店)",
  "point": {
    "lat": 29.536755,
    "lng": 106.489381
  },
  "address": "重庆九龙坡区渝州路6号1011号单元",
  "province": "重庆市",
  "city": "重庆市",
  "phoneNumber": "(023)86350592",
  "image": "https://poi-pic.cdn.bcebos.com/swd/5d262415-a8a1-3ced-8e54-89c7488e5a8b.jpg@h_104,w_132,q_100",
  "rating": 4,
  "__v": 0,
  "sort": "星巴克"
},{
  "_id": {
    "$oid": "64214c3990e61e9ede7b6b69"
  },
  "title": "星巴克(九街店)",
  "point": {
    "lat": 29.585679,
    "lng": 106.551654
  },
  "address": "重庆市江北区北城天街48号九街东区1层",
  "province": "重庆市",
  "city": "重庆市",
  "phoneNumber": "(023)67756965",
  "image": "https://poi-pic.cdn.bcebos.com/swd/5d262415-a8a1-3ced-8e54-89c7488e5a8b.jpg@h_104,w_132,q_100",
  "rating": 4,
  "__v": 0,
  "sort": "星巴克"
},{
  "_id": {
    "$oid": "64214c3990e61e9ede7b6b6a"
  },
  "title": "星巴克(金贸中心店)",
  "point": {
    "lat": 29.645273,
    "lng": 106.573334
  },
  "address": "重庆市渝北区栖霞路16号",
  "province": "重庆市",
  "city": "重庆市",
  "phoneNumber": "(023)86072487",
  "image": "https://poi-pic.cdn.bcebos.com/swd/5d262415-a8a1-3ced-8e54-89c7488e5a8b.jpg@h_104,w_132,q_100",
  "rating": 3,
  "__v": 0,
  "sort": "星巴克"
},{
  "_id": {
    "$oid": "64214c3990e61e9ede7b6b6b"
  },
  "title": "星巴克(爱融荟城店)",
  "point": {
    "lat": 29.606119,
    "lng": 106.50537
  },
  "address": "重庆市渝北区新南路439号华融现代广场LG层",
  "province": "重庆市",
  "city": "重庆市",
  "phoneNumber": "(023)88505081",
  "image": "https://poi-pic.cdn.bcebos.com/swd/5d262415-a8a1-3ced-8e54-89c7488e5a8b.jpg@h_104,w_132,q_100",
  "rating": 4,
  "__v": 0,
  "sort": "星巴克"
},{
  "_id": {
    "$oid": "64214c3990e61e9ede7b6b6c"
  },
  "title": "星巴克(龙湖源著天街店)",
  "point": {
    "lat": 29.6056,
    "lng": 106.496334
  },
  "address": "重庆市江北区福泉路与余松西路交叉路口往西北约110米龙湖源著天街F1",
  "province": "重庆市",
  "city": "重庆市",
  "phoneNumber": "(023)88300992",
  "image": "https://poi-pic.cdn.bcebos.com/swd/5d262415-a8a1-3ced-8e54-89c7488e5a8b.jpg@h_104,w_132,q_100",
  "rating": 4,
  "__v": 0,
  "sort": "星巴克"
},{
  "_id": {
    "$oid": "64214c3990e61e9ede7b6b6d"
  },
  "title": "星巴克(磁器口后街店)",
  "point": {
    "lat": 29.584198,
    "lng": 106.454727
  },
  "address": "重庆市沙坪坝区幸福街89号磁器口后街C5#号楼地上一层附1号、附2号和部分附3号(自编C-1F-25(1)单元)",
  "province": "重庆市",
  "city": "重庆市",
  "phoneNumber": "(023)86234387",
  "image": "https://poi-pic.cdn.bcebos.com/swd/5d262415-a8a1-3ced-8e54-89c7488e5a8b.jpg@h_104,w_132,q_100",
  "rating": 3,
  "__v": 0,
  "sort": "星巴克"
},{
  "_id": {
    "$oid": "64214c3990e61e9ede7b6b6e"
  },
  "title": "星巴克(龙湖重庆U城天街B馆店)",
  "point": {
    "lat": 29.611302,
    "lng": 106.300365
  },
  "address": "重庆市沙坪坝区大学城北路97号龙湖重庆U城天街B馆F1",
  "province": "重庆市",
  "city": "重庆市",
  "phoneNumber": "(023)88050383",
  "image": "https://poi-pic.cdn.bcebos.com/swd/5d262415-a8a1-3ced-8e54-89c7488e5a8b.jpg@h_104,w_132,q_100",
  "rating": 3,
  "__v": 0,
  "sort": "星巴克"
},{
  "_id": {
    "$oid": "64214c3990e61e9ede7b6b6f"
  },
  "title": "星巴克(砂之船(重庆)奥莱店)",
  "point": {
    "lat": 29.635872,
    "lng": 106.572126
  },
  "address": "重庆市渝北区奥特莱斯路1号西部奥特莱斯购物广场A馆1F层A102号",
  "province": "重庆市",
  "city": "重庆市",
  "phoneNumber": "(023)88212812",
  "image": "https://poi-pic.cdn.bcebos.com/swd/5d262415-a8a1-3ced-8e54-89c7488e5a8b.jpg@h_104,w_132,q_100",
  "rating": 4,
  "__v": 0,
  "sort": "星巴克"
},{
  "_id": {
    "$oid": "64214c3990e61e9ede7b6b70"
  },
  "title": "星巴克(万达广场巴南店)",
  "point": {
    "lat": 29.404257,
    "lng": 106.55032
  },
  "address": "重庆市巴南区渝南大道297号万达广场F1",
  "province": "重庆市",
  "city": "重庆市",
  "phoneNumber": "(023)62566100",
  "image": "https://poi-pic.cdn.bcebos.com/swd/5d262415-a8a1-3ced-8e54-89c7488e5a8b.jpg@h_104,w_132,q_100",
  "rating": 4,
  "__v": 0,
  "sort": "星巴克"
},{
  "_id": {
    "$oid": "64214c3990e61e9ede7b6b71"
  },
  "title": "星巴克(白象街店)",
  "point": {
    "lat": 29.557429,
    "lng": 106.585192
  },
  "address": "重庆市渝中区解放东路393号重庆融创白象街零售商区第L1层2-1、第L2层3-1商铺",
  "province": "重庆市",
  "city": "重庆市",
  "phoneNumber": "(023)81926773",
  "image": "https://poi-pic.cdn.bcebos.com/swd/5d262415-a8a1-3ced-8e54-89c7488e5a8b.jpg@h_104,w_132,q_100",
  "rating": 4,
  "__v": 0,
  "sort": "星巴克"
},{
  "_id": {
    "$oid": "64214c3990e61e9ede7b6b72"
  },
  "title": "星巴克(财富MALL店)",
  "point": {
    "lat": 29.614806,
    "lng": 106.515683
  },
  "address": "重庆市渝北区洪湖东路1号财富MALLF1",
  "province": "重庆市",
  "city": "重庆市",
  "phoneNumber": "(023)88730747",
  "image": "https://poi-pic.cdn.bcebos.com/swd/5d262415-a8a1-3ced-8e54-89c7488e5a8b.jpg@h_104,w_132,q_100",
  "rating": 4,
  "__v": 0,
  "sort": "星巴克"
},{
  "_id": {
    "$oid": "64214c3990e61e9ede7b6b73"
  },
  "title": "星巴克(金源时代购物中心店)",
  "point": {
    "lat": 29.563278,
    "lng": 106.531487
  },
  "address": "重庆市江北区北滨一路368号金源时代购物中心F1",
  "province": "重庆市",
  "city": "重庆市",
  "phoneNumber": "(023)88151810",
  "image": "https://poi-pic.cdn.bcebos.com/swd/5d262415-a8a1-3ced-8e54-89c7488e5a8b.jpg@h_104,w_132,q_100",
  "rating": 3,
  "__v": 0,
  "sort": "星巴克"
},{
  "_id": {
    "$oid": "64214c3990e61e9ede7b6b74"
  },
  "title": "星巴克(悦地购物中心店)",
  "point": {
    "lat": 29.494146,
    "lng": 106.648935
  },
  "address": "重庆市南岸区长生桥镇通江大道186号悦地购物中心F1",
  "province": "重庆市",
  "city": "重庆市",
  "phoneNumber": "(023)61636869",
  "image": "https://poi-pic.cdn.bcebos.com/swd/5d262415-a8a1-3ced-8e54-89c7488e5a8b.jpg@h_104,w_132,q_100",
  "rating": 3,
  "__v": 0,
  "sort": "星巴克"
},{
  "_id": {
    "$oid": "64214c3990e61e9ede7b6b75"
  },
  "title": "星巴克(沙坪坝万达广场店)",
  "point": {
    "lat": 29.548256,
    "lng": 106.480277
  },
  "address": "重庆市沙坪坝区经纬大道1108号沙坪坝万达广场F1",
  "province": "重庆市",
  "city": "重庆市",
  "phoneNumber": "(023)81399279",
  "image": "https://poi-pic.cdn.bcebos.com/swd/5d262415-a8a1-3ced-8e54-89c7488e5a8b.jpg@h_104,w_132,q_100",
  "rating": 3,
  "__v": 0,
  "sort": "星巴克"
},{
  "_id": {
    "$oid": "64214c3990e61e9ede7b6b76"
  },
  "title": "星巴克(重庆上海城店)",
  "point": {
    "lat": 29.535014,
    "lng": 106.567323
  },
  "address": "重庆市南岸区南坪西路38号百联南岸上海城购物中心F1",
  "province": "重庆市",
  "city": "重庆市",
  "image": "https://poi-pic.cdn.bcebos.com/swd/5d262415-a8a1-3ced-8e54-89c7488e5a8b.jpg@h_104,w_132,q_100",
  "rating": 4,
  "__v": 0,
  "sort": "星巴克"
},{
  "_id": {
    "$oid": "64214c3990e61e9ede7b6b77"
  },
  "title": "星巴克(弹子石老街店)",
  "point": {
    "lat": 29.585336,
    "lng": 106.59448
  },
  "address": "重庆市南岸区泰昌路弹子石老街14号B区6栋孙家花园",
  "province": "重庆市",
  "city": "重庆市",
  "phoneNumber": "(023)81926785",
  "image": "https://poi-pic.cdn.bcebos.com/swd/5d262415-a8a1-3ced-8e54-89c7488e5a8b.jpg@h_104,w_132,q_100",
  "rating": 4,
  "__v": 0,
  "sort": "星巴克"
},{
  "_id": {
    "$oid": "64214c3e90e61e9ede7b6b79"
  },
  "title": "星巴克(企业天地店)",
  "point": {
    "lat": 29.554861,
    "lng": 106.523092
  },
  "address": "重庆渝中区瑞天路10号",
  "province": "重庆市",
  "city": "重庆市",
  "phoneNumber": "(023)81399271",
  "image": "https://poi-pic.cdn.bcebos.com/swd/5d262415-a8a1-3ced-8e54-89c7488e5a8b.jpg@h_104,w_132,q_100",
  "rating": 4,
  "__v": 0,
  "sort": "星巴克"
},{
  "_id": {
    "$oid": "64214c3e90e61e9ede7b6b7a"
  },
  "title": "星巴克(重庆城市阳台店)",
  "point": {
    "lat": 29.568027,
    "lng": 106.585069
  },
  "address": "重庆市渝中区沧白路58号洪崖洞民俗风貌区11层",
  "province": "重庆市",
  "city": "重庆市",
  "image": "https://poi-pic.cdn.bcebos.com/swd/5d262415-a8a1-3ced-8e54-89c7488e5a8b.jpg@h_104,w_132,q_100",
  "rating": 4,
  "__v": 0,
  "sort": "星巴克"
},{
  "_id": {
    "$oid": "64214c3e90e61e9ede7b6b7b"
  },
  "title": "星巴克(弹子石万象汇店)",
  "point": {
    "lat": 29.608117,
    "lng": 106.607004
  },
  "address": "重庆市南岸区腾龙大道45号弹子石万象汇LG",
  "province": "重庆市",
  "city": "重庆市",
  "phoneNumber": "(023)81926787",
  "image": "https://poi-pic.cdn.bcebos.com/swd/5d262415-a8a1-3ced-8e54-89c7488e5a8b.jpg@h_104,w_132,q_100",
  "rating": 3,
  "__v": 0,
  "sort": "星巴克"
},{
  "_id": {
    "$oid": "64214c3e90e61e9ede7b6b7c"
  },
  "title": "星巴克(茂业天地江北店)",
  "point": {
    "lat": 29.583134,
    "lng": 106.537639
  },
  "address": "重庆市江北区建新北路16号茂业天地B1",
  "province": "重庆市",
  "city": "重庆市",
  "phoneNumber": "(023)86711347",
  "image": "https://poi-pic.cdn.bcebos.com/swd/5d262415-a8a1-3ced-8e54-89c7488e5a8b.jpg@h_104,w_132,q_100",
  "rating": 4,
  "__v": 0,
  "sort": "星巴克"
},{
  "_id": {
    "$oid": "64214c3e90e61e9ede7b6b7d"
  },
  "title": "星巴克(重庆SM广场店)",
  "point": {
    "lat": 29.588322,
    "lng": 106.502403
  },
  "address": "重庆市渝北区松石大道148号重庆SM广场LG",
  "province": "重庆市",
  "city": "重庆市",
  "phoneNumber": "(023)61870668",
  "image": "https://poi-pic.cdn.bcebos.com/swd/5d262415-a8a1-3ced-8e54-89c7488e5a8b.jpg@h_104,w_132,q_100",
  "rating": 4,
  "__v": 0,
  "sort": "星巴克"
},{
  "_id": {
    "$oid": "64214c3e90e61e9ede7b6b7e"
  },
  "title": "星巴克(旭辉乐活城店)",
  "point": {
    "lat": 29.407791,
    "lng": 106.550204
  },
  "address": "重庆市巴南区渝南大道233号旭辉乐活城B1",
  "province": "重庆市",
  "city": "重庆市",
  "phoneNumber": "(023)81926779",
  "image": "https://poi-pic.cdn.bcebos.com/swd/5d262415-a8a1-3ced-8e54-89c7488e5a8b.jpg@h_104,w_132,q_100",
  "rating": 3,
  "__v": 0,
  "sort": "星巴克"
},{
  "_id": {
    "$oid": "64214c3e90e61e9ede7b6b7f"
  },
  "title": "星巴克(重庆云阳滨江购物公园店)",
  "point": {
    "lat": 30.926782,
    "lng": 108.724856
  },
  "address": "重庆市云阳县滨江大道333号滨江购物公园一层",
  "province": "重庆市",
  "city": "重庆市",
  "phoneNumber": "(023)61366874",
  "image": "https://poi-pic.cdn.bcebos.com/swd/5d262415-a8a1-3ced-8e54-89c7488e5a8b.jpg@h_104,w_132,q_100",
  "rating": 3,
  "__v": 0,
  "sort": "星巴克"
},{
  "_id": {
    "$oid": "64214c3e90e61e9ede7b6b80"
  },
  "title": "星巴克(英利国际广场店)",
  "point": {
    "lat": 29.546217,
    "lng": 106.522794
  },
  "address": "重庆市渝中区大坪正街19号英利国际广场1F",
  "province": "重庆市",
  "city": "重庆市",
  "phoneNumber": "(023)81924792",
  "image": "https://poi-pic.cdn.bcebos.com/swd/5d262415-a8a1-3ced-8e54-89c7488e5a8b.jpg@h_104,w_132,q_100",
  "rating": 4,
  "__v": 0,
  "sort": "星巴克"
},{
  "_id": {
    "$oid": "64214c3e90e61e9ede7b6b81"
  },
  "title": "星巴克(新世纪凯瑞商都店)",
  "point": {
    "lat": 29.564866,
    "lng": 106.468501
  },
  "address": "重庆市沙坪坝区三峡广场双巷子街6号煌华新纪元购物广场1F",
  "province": "重庆市",
  "city": "重庆市",
  "phoneNumber": "(023)88928090",
  "image": "https://poi-pic.cdn.bcebos.com/swd/5d262415-a8a1-3ced-8e54-89c7488e5a8b.jpg@h_104,w_132,q_100",
  "rating": 4,
  "__v": 0,
  "sort": "星巴克"
},{
  "_id": {
    "$oid": "64214c3e90e61e9ede7b6b82"
  },
  "title": "星巴克(盛汇广场店)",
  "point": {
    "lat": 29.535971,
    "lng": 106.571942
  },
  "address": "重庆市南岸区南坪北路8号盛汇广场F2",
  "province": "重庆市",
  "city": "重庆市",
  "phoneNumber": "(023)86382078",
  "image": "https://poi-pic.cdn.bcebos.com/swd/5d262415-a8a1-3ced-8e54-89c7488e5a8b.jpg@h_104,w_132,q_100",
  "rating": 3,
  "__v": 0,
  "sort": "星巴克"
},{
  "_id": {
    "$oid": "64214c3e90e61e9ede7b6b83"
  },
  "title": "星巴克(重庆大渡口万象汇店)",
  "point": {
    "lat": 29.488161,
    "lng": 106.490931
  },
  "address": "重庆市大渡口区文体路99号重庆大渡口万象汇LG",
  "province": "重庆市",
  "city": "重庆市",
  "phoneNumber": "(023)81901989",
  "image": "https://poi-pic.cdn.bcebos.com/swd/5d262415-a8a1-3ced-8e54-89c7488e5a8b.jpg@h_104,w_132,q_100",
  "rating": 3,
  "__v": 0,
  "sort": "星巴克"
},{
  "_id": {
    "$oid": "64214c3e90e61e9ede7b6b84"
  },
  "title": "星巴克(九龙坡印象汇店)",
  "point": {
    "lat": 29.505995,
    "lng": 106.518595
  },
  "address": "重庆市九龙坡区杨家坪西路三村2号九龙坡印象汇F1",
  "province": "重庆市",
  "city": "重庆市",
  "phoneNumber": "(023)86189721",
  "image": "https://poi-pic.cdn.bcebos.com/swd/5d262415-a8a1-3ced-8e54-89c7488e5a8b.jpg@h_104,w_132,q_100",
  "rating": 4,
  "__v": 0,
  "sort": "星巴克"
},{
  "_id": {
    "$oid": "64214c3e90e61e9ede7b6b85"
  },
  "title": "星巴克(重庆大洋百货店)",
  "point": {
    "lat": 29.513454,
    "lng": 106.520721
  },
  "address": "重庆市九龙坡区杨家坪街西郊路3号重庆大洋百货地上第1层L1-A-02单元",
  "province": "重庆市",
  "city": "重庆市",
  "image": "https://poi-pic.cdn.bcebos.com/swd/5d262415-a8a1-3ced-8e54-89c7488e5a8b.jpg@h_104,w_132,q_100",
  "rating": 3,
  "__v": 0,
  "sort": "星巴克"
},{
  "_id": {
    "$oid": "64214c3e90e61e9ede7b6b86"
  },
  "title": "星巴克(晶郦馆店)",
  "point": {
    "lat": 29.607093,
    "lng": 106.512058
  },
  "address": "重庆市渝北区新南路160号龙湖晶郦馆1层",
  "province": "重庆市",
  "city": "重庆市",
  "phoneNumber": "(023)63218761",
  "image": "https://poi-pic.cdn.bcebos.com/swd/5d262415-a8a1-3ced-8e54-89c7488e5a8b.jpg@h_104,w_132,q_100",
  "rating": 4,
  "__v": 0,
  "sort": "星巴克"
},{
  "_id": {
    "$oid": "64214c3e90e61e9ede7b6b87"
  },
  "title": "星巴克(重庆北站店)",
  "point": {
    "lat": 29.616682,
    "lng": 106.558044
  },
  "address": "重庆市渝北区昆仑大道51号重庆北站候车室2F区",
  "province": "重庆市",
  "city": "重庆市",
  "image": "https://poi-pic.cdn.bcebos.com/swd/5d262415-a8a1-3ced-8e54-89c7488e5a8b.jpg@h_104,w_132,q_100",
  "__v": 0,
  "sort": "星巴克"
},{
  "_id": {
    "$oid": "64214c4f90e61e9ede7b6b89"
  },
  "title": "星巴克(天山海世界店)",
  "point": {
    "lat": 38.04466,
    "lng": 114.614324
  },
  "address": "河北省石家庄市裕华区天山大街116号",
  "province": "河北省",
  "city": "石家庄市",
  "phoneNumber": "(0311)83070779",
  "image": "https://poi-pic.cdn.bcebos.com/swd/5d262415-a8a1-3ced-8e54-89c7488e5a8b.jpg@h_104,w_132,q_100",
  "rating": 3,
  "__v": 0,
  "sort": "星巴克"
},{
  "_id": {
    "$oid": "64214c4f90e61e9ede7b6b8a"
  },
  "title": "星巴克(万达广场长安店)",
  "point": {
    "lat": 38.049965,
    "lng": 114.56933
  },
  "address": "石家庄市长安区中山东路583号万达广场F1",
  "province": "河北省",
  "city": "石家庄市",
  "phoneNumber": "(0311)86905793",
  "image": "https://poi-pic.cdn.bcebos.com/swd/5d262415-a8a1-3ced-8e54-89c7488e5a8b.jpg@h_104,w_132,q_100",
  "rating": 4,
  "__v": 0,
  "sort": "星巴克"
},{
  "_id": {
    "$oid": "64214c4f90e61e9ede7b6b8b"
  },
  "title": "星巴克(北国先天下店)",
  "point": {
    "lat": 38.047635,
    "lng": 114.532384
  },
  "address": "河北省石家庄市长安区中山东路326号北国先天下F1",
  "province": "河北省",
  "city": "石家庄市",
  "phoneNumber": "(0311)85114891",
  "image": "https://poi-pic.cdn.bcebos.com/swd/5d262415-a8a1-3ced-8e54-89c7488e5a8b.jpg@h_104,w_132,q_100",
  "rating": 4,
  "__v": 0,
  "sort": "星巴克"
},{
  "_id": {
    "$oid": "64214c4f90e61e9ede7b6b8c"
  },
  "title": "星巴克(蜂巢购物中心店)",
  "point": {
    "lat": 38.054043,
    "lng": 114.518002
  },
  "address": "石家庄市长安区建设北大街20号蜂巢购物中心F1",
  "province": "河北省",
  "city": "石家庄市",
  "phoneNumber": "(0311)66600180",
  "image": "https://poi-pic.cdn.bcebos.com/swd/5d262415-a8a1-3ced-8e54-89c7488e5a8b.jpg@h_104,w_132,q_100",
  "rating": 4,
  "__v": 0,
  "sort": "星巴克"
},{
  "_id": {
    "$oid": "64214c4f90e61e9ede7b6b8d"
  },
  "title": "星巴克(银座商城东购店)",
  "point": {
    "lat": 38.050358,
    "lng": 114.490904
  },
  "address": "河北省石家庄市新华区中山西路83号银座商城F1",
  "province": "河北省",
  "city": "石家庄市",
  "phoneNumber": "(0311)85361780",
  "image": "https://poi-pic.cdn.bcebos.com/swd/5d262415-a8a1-3ced-8e54-89c7488e5a8b.jpg@h_104,w_132,q_100",
  "rating": 4,
  "__v": 0,
  "sort": "星巴克"
},{
  "_id": {
    "$oid": "64214c4f90e61e9ede7b6b8e"
  },
  "title": "星巴克(石家庄天河方圆荟店)",
  "point": {
    "lat": 38.093092,
    "lng": 114.446733
  },
  "address": "河北省石家庄市新华区景悦街6号天河方圆荟购物中心F1",
  "province": "河北省",
  "city": "石家庄市",
  "phoneNumber": "(0311)83052266",
  "image": "https://poi-pic.cdn.bcebos.com/swd/5d262415-a8a1-3ced-8e54-89c7488e5a8b.jpg@h_104,w_132,q_100",
  "rating": 3,
  "__v": 0,
  "sort": "星巴克"
},{
  "_id": {
    "$oid": "64214c4f90e61e9ede7b6b8f"
  },
  "title": "星巴克(石家庄东胜商业广场店)",
  "point": {
    "lat": 38.048876,
    "lng": 114.562567
  },
  "address": "石家庄市长安区中山东路508号东胜广场F1",
  "province": "河北省",
  "city": "石家庄市",
  "phoneNumber": "(0311)83072662,4008206998",
  "image": "https://poi-pic.cdn.bcebos.com/swd/5d262415-a8a1-3ced-8e54-89c7488e5a8b.jpg@h_104,w_132,q_100",
  "rating": 3,
  "__v": 0,
  "sort": "星巴克"
},{
  "_id": {
    "$oid": "64214c5d90e61e9ede7b6b91"
  },
  "title": "星巴克(茂业天地亲贤店)",
  "point": {
    "lat": 37.831762,
    "lng": 112.574991
  },
  "address": "山西省太原市小店区亲贤北街79号茂业天地购物中心一层1017单元",
  "province": "山西省",
  "city": "太原市",
  "phoneNumber": "(0351)2775132",
  "image": "https://poi-pic.cdn.bcebos.com/swd/5d262415-a8a1-3ced-8e54-89c7488e5a8b.jpg@h_104,w_132,q_100",
  "rating": 4,
  "__v": 0,
  "sort": "星巴克"
},{
  "_id": {
    "$oid": "64214c5d90e61e9ede7b6b92"
  },
  "title": "星巴克(国金中心店)",
  "point": {
    "lat": 37.799525,
    "lng": 112.567473
  },
  "address": "山西省太原市小店区南中环街426号山西国际金融中心a座1号楼1层东北角af106号",
  "province": "山西省",
  "city": "太原市",
  "phoneNumber": "(0351)3070530,(0351)3073209",
  "image": "https://poi-pic.cdn.bcebos.com/swd/5d262415-a8a1-3ced-8e54-89c7488e5a8b.jpg@h_104,w_132,q_100",
  "rating": 3,
  "__v": 0,
  "sort": "星巴克"
},{
  "_id": {
    "$oid": "64214c5d90e61e9ede7b6b93"
  },
  "title": "星巴克(太原柳巷第一店)",
  "point": {
    "lat": 37.871879,
    "lng": 112.573451
  },
  "address": "太原市迎泽区柳巷南路99号茂业百货F2",
  "province": "山西省",
  "city": "太原市",
  "phoneNumber": "(0351)2775488",
  "image": "https://poi-pic.cdn.bcebos.com/swd/5d262415-a8a1-3ced-8e54-89c7488e5a8b.jpg@h_104,w_132,q_100",
  "rating": 4,
  "__v": 0,
  "sort": "星巴克"
},{
  "_id": {
    "$oid": "64214c5d90e61e9ede7b6b94"
  },
  "title": "星巴克(富力广场店)",
  "point": {
    "lat": 37.905127,
    "lng": 112.601774
  },
  "address": "山西省太原市杏花岭区胜利东街7号富力广场F1",
  "province": "山西省",
  "city": "太原市",
  "phoneNumber": "(0351)3855826",
  "image": "https://poi-pic.cdn.bcebos.com/swd/5d262415-a8a1-3ced-8e54-89c7488e5a8b.jpg@h_104,w_132,q_100",
  "rating": 3,
  "__v": 0,
  "sort": "星巴克"
},{
  "_id": {
    "$oid": "64214c5d90e61e9ede7b6b95"
  },
  "title": "星巴克(万达广场太原店)",
  "point": {
    "lat": 37.889677,
    "lng": 112.5671
  },
  "address": "山西省太原市杏花岭区解放路175号万达广场F1层1037号",
  "province": "山西省",
  "city": "太原市",
  "phoneNumber": "(0351)3107694",
  "image": "https://poi-pic.cdn.bcebos.com/swd/5d262415-a8a1-3ced-8e54-89c7488e5a8b.jpg@h_104,w_132,q_100",
  "rating": 4,
  "__v": 0,
  "sort": "星巴克"
},{
  "_id": {
    "$oid": "64214c5d90e61e9ede7b6b96"
  },
  "title": "星巴克(华宇百花谷店)",
  "point": {
    "lat": 37.813353,
    "lng": 112.553945
  },
  "address": "山西省太原市小店区学府街132号华宇百花谷F1",
  "province": "山西省",
  "city": "太原市",
  "phoneNumber": "(0351)8366400",
  "image": "https://poi-pic.cdn.bcebos.com/swd/5d262415-a8a1-3ced-8e54-89c7488e5a8b.jpg@h_104,w_132,q_100",
  "rating": 4,
  "__v": 0,
  "sort": "星巴克"
},{
  "_id": {
    "$oid": "64214c5d90e61e9ede7b6b97"
  },
  "title": "星巴克(天美新天地店)",
  "point": {
    "lat": 37.826017,
    "lng": 112.569332
  },
  "address": "山西省太原市小店区长风街113号天美新天地F1-114单元",
  "province": "山西省",
  "city": "太原市",
  "phoneNumber": "(0351)8376206",
  "image": "https://poi-pic.cdn.bcebos.com/swd/5d262415-a8a1-3ced-8e54-89c7488e5a8b.jpg@h_104,w_132,q_100",
  "rating": 3,
  "__v": 0,
  "sort": "星巴克"
},{
  "_id": {
    "$oid": "64214c6a90e61e9ede7b6b99"
  },
  "title": "星巴克(万达广场呼和浩特店)",
  "point": {
    "lat": 40.841361,
    "lng": 111.739498
  },
  "address": "内蒙古自治区呼和浩特市赛罕区新华东街26号万达广场F1",
  "province": "内蒙古自治区",
  "city": "呼和浩特市",
  "phoneNumber": "(0471)6246860",
  "image": "https://poi-pic.cdn.bcebos.com/swd/5d262415-a8a1-3ced-8e54-89c7488e5a8b.jpg@h_104,w_132,q_100",
  "rating": 3,
  "__v": 0,
  "sort": "星巴克"
},{
  "_id": {
    "$oid": "64214c6a90e61e9ede7b6b9a"
  },